{"type": "FeatureCollection", "features": [{"type": "Feature", "geometry": {"type": "Point", "coordinates": [116.4119016, 40.0290192]}, "properties": {"city": "Beijing", "name": "北苑路北", "colour": "#aaa"}}, {"type": "Feature", "geometry": {"type": "Point", "coordinates": [116.197616, 39.8989948]}, "properties": {"city": "Beijing", "name": "衙门口", "colour": "#aaa"}}, {"type": "Feature", "geometry": {"type": "Point", "coordinates": [116.4690136, 39.942932]}, "properties": {"city": "Beijing", "name": "枣营", "colour": "#aaa"}}, {"type": "Feature", "geometry": {"type": "Point", "coordinates": [116.4725284, 39.9323096]}, "properties": {"city": "Beijing", "name": "朝阳公园", "colour": "#aaa"}}, {"type": "Feature", "geometry": {"type": "Point", "coordinates": [116.2688628, 39.864019]}, "properties": {"city": "Beijing", "name": "大井", "colour": "#aaa"}}, {"type": "Feature", "geometry": {"type": "Point", "coordinates": [116.2344523, 39.8583275]}, "properties": {"city": "Beijing", "name": "大瓦窑", "colour": "#aaa"}}, {"type": "Feature", "geometry": {"type": "Point", "coordinates": [116.2483861, 39.8640535]}, "properties": {"city": "Beijing", "name": "郭庄子", "colour": "#aaa"}}, {"type": "Feature", "geometry": {"type": "Point", "coordinates": [116.2881665, 39.8652402]}, "properties": {"city": "Beijing", "name": "七里庄", "colour": "#aaa"}}, {"type": "Feature", "geometry": {"type": "Point", "coordinates": [116.2978076, 39.8652242]}, "properties": {"city": "Beijing", "name": "西局", "colour": "#aaa"}}, {"type": "Feature", "geometry": {"type": "Point", "coordinates": [116.3144367, 39.8661164]}, "properties": {"city": "Beijing", "name": "东管头", "colour": "#aaa"}}, {"type": "Feature", "geometry": {"type": "Point", "coordinates": [116.3256029, 39.8662759]}, "properties": {"city": "Beijing", "name": "丽泽商务区", "colour": "#aaa"}}, {"type": "Feature", "geometry": {"type": "Point", "coordinates": [116.3600963, 39.8614067]}, "properties": {"city": "Beijing", "name": "景风门", "colour": "#aaa"}}, {"type": "Feature", "geometry": {"type": "Point", "coordinates": [116.3366819, 39.8662594]}, "properties": {"city": "Beijing", "name": "菜户营", "colour": "#aaa"}}, {"type": "Feature", "geometry": {"type": "Point", "coordinates": [116.4049409, 39.8636494]}, "properties": {"city": "Beijing", "name": "景泰", "colour": "#aaa"}}, {"type": "Feature", "geometry": {"type": "Point", "coordinates": [116.4154612, 39.8643287]}, "properties": {"city": "Beijing", "name": "蒲黄榆", "colour": "#aaa"}}, {"type": "Feature", "geometry": {"type": "Point", "coordinates": [116.3816795, 39.8675967]}, "properties": {"city": "Beijing", "name": "陶然桥(在建)", "colour": "#aaa"}}, {"type": "Feature", "geometry": {"type": "Point", "coordinates": [116.4525595, 39.8647129]}, "properties": {"city": "Beijing", "name": "十里河", "colour": "#aaa"}}, {"type": "Feature", "geometry": {"type": "Point", "coordinates": [116.4339348, 39.8646354]}, "properties": {"city": "Beijing", "name": "方庄", "colour": "#aaa"}}, {"type": "Feature", "geometry": {"type": "Point", "coordinates": [116.4789687, 39.9583029]}, "properties": {"city": "Beijing", "name": "东风北桥", "colour": "#aaa"}}, {"type": "Feature", "geometry": {"type": "Point", "coordinates": [116.4716849, 39.8921089]}, "properties": {"city": "Beijing", "name": "九龙山", "colour": "#aaa"}}, {"type": "Feature", "geometry": {"type": "Point", "coordinates": [116.4712272, 39.9069399]}, "properties": {"city": "Beijing", "name": "大望路", "colour": "#aaa"}}, {"type": "Feature", "geometry": {"type": "Point", "coordinates": [116.4713411, 39.8838514]}, "properties": {"city": "Beijing", "name": "平乐园", "colour": "#aaa"}}, {"type": "Feature", "geometry": {"type": "Point", "coordinates": [116.4713573, 39.8736424]}, "properties": {"city": "Beijing", "name": "北工大西门", "colour": "#aaa"}}, {"type": "Feature", "geometry": {"type": "Point", "coordinates": [116.4611561, 40.0091272]}, "properties": {"city": "Beijing", "name": "东湖渠", "colour": "#aaa"}}, {"type": "Feature", "geometry": {"type": "Point", "coordinates": [116.4727698, 40.0265143]}, "properties": {"city": "Beijing", "name": "善各庄", "colour": "#aaa"}}, {"type": "Feature", "geometry": {"type": "Point", "coordinates": [116.4840447, 39.9694941]}, "properties": {"city": "Beijing", "name": "将台", "colour": "#aaa"}}, {"type": "Feature", "geometry": {"type": "Point", "coordinates": [116.4624279, 39.9965663]}, "properties": {"city": "Beijing", "name": "望京", "colour": "#aaa"}}, {"type": "Feature", "geometry": {"type": "Point", "coordinates": [116.4607871, 40.0191988]}, "properties": {"city": "Beijing", "name": "来广营", "colour": "#aaa"}}, {"type": "Feature", "geometry": {"type": "Point", "coordinates": [116.4650632, 39.9906798]}, "properties": {"city": "Beijing", "name": "阜通", "colour": "#aaa"}}, {"type": "Feature", "geometry": {"type": "Point", "coordinates": [116.4975172, 39.8840067]}, "properties": {"city": "Beijing", "name": "化工", "colour": "#aaa"}}, {"type": "Feature", "geometry": {"type": "Point", "coordinates": [116.4954124, 39.8733935]}, "properties": {"city": "Beijing", "name": "南楼梓庄", "colour": "#aaa"}}, {"type": "Feature", "geometry": {"type": "Point", "coordinates": [116.4552314, 39.8920933]}, "properties": {"city": "Beijing", "name": "双井", "colour": "#aaa"}}, {"type": "Feature", "geometry": {"type": "Point", "coordinates": [116.5223453, 39.8581385]}, "properties": {"city": "Beijing", "name": "双合", "colour": "#aaa"}}, {"type": "Feature", "geometry": {"type": "Point", "coordinates": [116.5057156, 39.859574]}, "properties": {"city": "Beijing", "name": "垡头", "colour": "#aaa"}}, {"type": "Feature", "geometry": {"type": "Point", "coordinates": [116.4813499, 39.8921857]}, "properties": {"city": "Beijing", "name": "大郊亭", "colour": "#aaa"}}, {"type": "Feature", "geometry": {"type": "Point", "coordinates": [116.351727, 39.8885681]}, "properties": {"city": "Beijing", "name": "广安门内", "colour": "#aaa"}}, {"type": "Feature", "geometry": {"type": "Point", "coordinates": [116.4430351, 39.8923066]}, "properties": {"city": "Beijing", "name": "广渠门外", "colour": "#aaa"}}, {"type": "Feature", "geometry": {"type": "Point", "coordinates": [116.4022485, 39.8912849]}, "properties": {"city": "Beijing", "name": "桥湾", "colour": "#aaa"}}, {"type": "Feature", "geometry": {"type": "Point", "coordinates": [116.4277207, 39.8922863]}, "properties": {"city": "Beijing", "name": "广渠门内", "colour": "#aaa"}}, {"type": "Feature", "geometry": {"type": "Point", "coordinates": [116.4930838, 39.8656674]}, "properties": {"city": "Beijing", "name": "欢乐谷景区", "colour": "#aaa"}}, {"type": "Feature", "geometry": {"type": "Point", "coordinates": [116.531614, 39.8542896]}, "properties": {"city": "Beijing", "name": "焦化厂", "colour": "#aaa"}}, {"type": "Feature", "geometry": {"type": "Point", "coordinates": [116.4902447, 39.8913756]}, "properties": {"city": "Beijing", "name": "百子湾", "colour": "#aaa"}}, {"type": "Feature", "geometry": {"type": "Point", "coordinates": [116.4126199, 39.8917025]}, "properties": {"city": "Beijing", "name": "磁器口", "colour": "#aaa"}}, {"type": "Feature", "geometry": {"type": "Point", "coordinates": [116.3682164, 39.887991]}, "properties": {"city": "Beijing", "name": "菜市口", "colour": "#aaa"}}, {"type": "Feature", "geometry": {"type": "Point", "coordinates": [116.3774806, 39.8883975]}, "properties": {"city": "Beijing", "name": "虎坊桥", "colour": "#aaa"}}, {"type": "Feature", "geometry": {"type": "Point", "coordinates": [116.3293717, 39.888892]}, "properties": {"city": "Beijing", "name": "达官营", "colour": "#aaa"}}, {"type": "Feature", "geometry": {"type": "Point", "coordinates": [116.4250584, 39.9997494]}, "properties": {"city": "Beijing", "name": "关庄", "colour": "#aaa"}}, {"type": "Feature", "geometry": {"type": "Point", "coordinates": [116.3620432, 40.0001238]}, "properties": {"city": "Beijing", "name": "北沙滩", "colour": "#aaa"}}, {"type": "Feature", "geometry": {"type": "Point", "coordinates": [116.3867559, 40.0003857]}, "properties": {"city": "Beijing", "name": "奥林匹克公园", "colour": "#aaa"}}, {"type": "Feature", "geometry": {"type": "Point", "coordinates": [116.4016216, 40.0011779]}, "properties": {"city": "Beijing", "name": "安立路", "colour": "#aaa"}}, {"type": "Feature", "geometry": {"type": "Point", "coordinates": [116.3336262, 39.9993038]}, "properties": {"city": "Beijing", "name": "清华东路西口", "colour": "#aaa"}}, {"type": "Feature", "geometry": {"type": "Point", "coordinates": [116.2233972, 39.8477313]}, "properties": {"city": "Beijing", "name": "宛平城", "colour": "#aaa"}}, {"type": "Feature", "geometry": {"type": "Point", "coordinates": [116.2529824, 39.8375683]}, "properties": {"city": "Beijing", "name": "榆树庄", "colour": "#aaa"}}, {"type": "Feature", "geometry": {"type": "Point", "coordinates": [116.2810932, 39.8349394]}, "properties": {"city": "Beijing", "name": "富丰桥", "colour": "#aaa"}}, {"type": "Feature", "geometry": {"type": "Point", "coordinates": [116.3307982, 39.8762703]}, "properties": {"city": "Beijing", "name": "红莲南路", "colour": "#aaa"}}, {"type": "Feature", "geometry": {"type": "Point", "coordinates": [116.3277725, 39.9077017]}, "properties": {"city": "Beijing", "name": "木樨地", "colour": "#aaa"}}, {"type": "Feature", "geometry": {"type": "Point", "coordinates": [116.328872, 39.9139393]}, "properties": {"city": "Beijing", "name": "玉渊潭东门", "colour": "#aaa"}}, {"type": "Feature", "geometry": {"type": "Point", "coordinates": [116.3285052, 39.922439]}, "properties": {"city": "Beijing", "name": "甘家口", "colour": "#aaa"}}, {"type": "Feature", "geometry": {"type": "Point", "coordinates": [116.3032926, 39.9471407]}, "properties": {"city": "Beijing", "name": "万寿寺", "colour": "#aaa"}}, {"type": "Feature", "geometry": {"type": "Point", "coordinates": [116.3015319, 39.9612484]}, "properties": {"city": "Beijing", "name": "苏州桥", "colour": "#aaa"}}, {"type": "Feature", "geometry": {"type": "Point", "coordinates": [116.2942646, 39.9839185]}, "properties": {"city": "Beijing", "name": "万泉河桥", "colour": "#aaa"}}, {"type": "Feature", "geometry": {"type": "Point", "coordinates": [116.2770283, 40.0184431]}, "properties": {"city": "Beijing", "name": "农大南路", "colour": "#aaa"}}, {"type": "Feature", "geometry": {"type": "Point", "coordinates": [116.265829, 40.031445]}, "properties": {"city": "Beijing", "name": "马连洼", "colour": "#aaa"}}, {"type": "Feature", "geometry": {"type": "Point", "coordinates": [116.2520781, 40.0478932]}, "properties": {"city": "Beijing", "name": "西北旺", "colour": "#aaa"}}, {"type": "Feature", "geometry": {"type": "Point", "coordinates": [116.2435428, 40.0630145]}, "properties": {"city": "Beijing", "name": "永丰南", "colour": "#aaa"}}, {"type": "Feature", "geometry": {"type": "Point", "coordinates": [116.2093337, 40.0673089]}, "properties": {"city": "Beijing", "name": "屯佃", "colour": "#aaa"}}, {"type": "Feature", "geometry": {"type": "Point", "coordinates": [116.1555687, 40.0675113]}, "properties": {"city": "Beijing", "name": "温阳路", "colour": "#aaa"}}, {"type": "Feature", "geometry": {"type": "Point", "coordinates": [116.1243785, 40.0668592]}, "properties": {"city": "Beijing", "name": "北安河", "colour": "#aaa"}}, {"type": "Feature", "geometry": {"type": "Point", "coordinates": [116.4209544, 39.9035987]}, "properties": {"city": "Beijing", "name": "北京站", "colour": "#aaa"}}, {"type": "Feature", "geometry": {"type": "Point", "coordinates": [116.3727527, 39.8635548]}, "properties": {"city": "Beijing", "name": "北京南站", "colour": "#aaa"}}, {"type": "Feature", "geometry": {"type": "Point", "coordinates": [116.4109068, 39.9861781]}, "properties": {"city": "Beijing", "name": "惠新西街北口", "colour": "#aaa"}}, {"type": "Feature", "geometry": {"type": "Point", "coordinates": [116.4113554, 39.9759588]}, "properties": {"city": "Beijing", "name": "惠新西街南口", "colour": "#aaa"}}, {"type": "Feature", "geometry": {"type": "Point", "coordinates": [116.4117932, 39.9672289]}, "properties": {"city": "Beijing", "name": "和平西桥", "colour": "#aaa"}}, {"type": "Feature", "geometry": {"type": "Point", "coordinates": [116.4101645, 39.9469713]}, "properties": {"city": "Beijing", "name": "雍和宫", "colour": "#aaa"}}, {"type": "Feature", "geometry": {"type": "Point", "coordinates": [116.4115432, 39.9479275]}, "properties": {"city": "Beijing", "name": "雍和宫", "colour": "#aaa"}}, {"type": "Feature", "geometry": {"type": "Point", "coordinates": [116.4118355, 39.9154103]}, "properties": {"city": "Beijing", "name": "灯市口", "colour": "#aaa"}}, {"type": "Feature", "geometry": {"type": "Point", "coordinates": [116.4102477, 39.9229744]}, "properties": {"city": "Beijing", "name": "东四", "colour": "#aaa"}}, {"type": "Feature", "geometry": {"type": "Point", "coordinates": [116.3900647, 39.9359528]}, "properties": {"city": "Beijing", "name": "什刹海", "colour": "#aaa"}}, {"type": "Feature", "geometry": {"type": "Point", "coordinates": [116.3879183, 39.947544]}, "properties": {"city": "Beijing", "name": "鼓楼大街", "colour": "#aaa"}}, {"type": "Feature", "geometry": {"type": "Point", "coordinates": [116.3876367, 39.9467307]}, "properties": {"city": "Beijing", "name": "鼓楼大街", "colour": "#aaa"}}, {"type": "Feature", "geometry": {"type": "Point", "coordinates": [116.3883984, 39.9671117]}, "properties": {"city": "Beijing", "name": "安华桥", "colour": "#aaa"}}, {"type": "Feature", "geometry": {"type": "Point", "coordinates": [116.3879263, 39.9763987]}, "properties": {"city": "Beijing", "name": "北土城", "colour": "#aaa"}}, {"type": "Feature", "geometry": {"type": "Point", "coordinates": [116.3864002, 40.009195]}, "properties": {"city": "Beijing", "name": "森林公园南门", "colour": "#aaa"}}, {"type": "Feature", "geometry": {"type": "Point", "coordinates": [116.3538978, 40.0704794]}, "properties": {"city": "Beijing", "name": "霍营", "colour": "#aaa"}}, {"type": "Feature", "geometry": {"type": "Point", "coordinates": [116.3667905, 40.0206001]}, "properties": {"city": "Beijing", "name": "林萃桥", "colour": "#aaa"}}, {"type": "Feature", "geometry": {"type": "Point", "coordinates": [116.3483302, 40.0366785]}, "properties": {"city": "Beijing", "name": "永泰庄", "colour": "#aaa"}}, {"type": "Feature", "geometry": {"type": "Point", "coordinates": [116.3451639, 40.0460679]}, "properties": {"city": "Beijing", "name": "西小口", "colour": "#aaa"}}, {"type": "Feature", "geometry": {"type": "Point", "coordinates": [116.3571849, 40.0797507]}, "properties": {"city": "Beijing", "name": "回龙观东大街", "colour": "#aaa"}}, {"type": "Feature", "geometry": {"type": "Point", "coordinates": [116.3441902, 40.0886607]}, "properties": {"city": "Beijing", "name": "平西府", "colour": "#aaa"}}, {"type": "Feature", "geometry": {"type": "Point", "coordinates": [116.4960424, 39.9216269]}, "properties": {"city": "Beijing", "name": "十里堡", "colour": "#aaa"}}, {"type": "Feature", "geometry": {"type": "Point", "coordinates": [116.4549705, 39.8748619]}, "properties": {"city": "Beijing", "name": "潘家园", "colour": "#aaa"}}, {"type": "Feature", "geometry": {"type": "Point", "coordinates": [116.447588, 39.8506149]}, "properties": {"city": "Beijing", "name": "分钟寺", "colour": "#aaa"}}, {"type": "Feature", "geometry": {"type": "Point", "coordinates": [116.4121905, 40.0015358]}, "properties": {"city": "Beijing", "name": "大屯路东", "colour": "#aaa"}}, {"type": "Feature", "geometry": {"type": "Point", "coordinates": [116.3853355, 40.0008946]}, "properties": {"city": "Beijing", "name": "奥林匹克公园", "colour": "#aaa"}}, {"type": "Feature", "geometry": {"type": "Point", "coordinates": [116.4417045, 39.9941582]}, "properties": {"city": "Beijing", "name": "望京西", "colour": "#aaa"}}, {"type": "Feature", "geometry": {"type": "Point", "coordinates": [116.7272447, 39.9022116]}, "properties": {"city": "Beijing", "name": "东夏园", "colour": "#aaa"}}, {"type": "Feature", "geometry": {"type": "Point", "coordinates": [116.3777751, 39.8986925]}, "properties": {"city": "Beijing", "name": "和平门", "colour": "#aaa"}}, {"type": "Feature", "geometry": {"type": "Point", "coordinates": [116.332733, 39.9369392]}, "properties": {"city": "Beijing", "name": "动物园", "colour": "#aaa"}}, {"type": "Feature", "geometry": {"type": "Point", "coordinates": [116.4108894, 39.9393851]}, "properties": {"city": "Beijing", "name": "北新桥", "colour": "#aaa"}}, {"type": "Feature", "geometry": {"type": "Point", "coordinates": [116.3187284, 39.9412214]}, "properties": {"city": "Beijing", "name": "国家图书馆", "colour": "#aaa"}}, {"type": "Feature", "geometry": {"type": "Point", "coordinates": [116.4551162, 39.8830661]}, "properties": {"city": "Beijing", "name": "劲松", "colour": "#aaa"}}, {"type": "Feature", "geometry": {"type": "Point", "coordinates": [116.3788076, 39.8438402]}, "properties": {"city": "Beijing", "name": "角门东", "colour": "#aaa"}}, {"type": "Feature", "geometry": {"type": "Point", "coordinates": [116.533948, 39.7718151]}, "properties": {"city": "Beijing", "name": "同济南路", "colour": "#aaa"}}, {"type": "Feature", "geometry": {"type": "Point", "coordinates": [116.4297381, 39.9759527]}, "properties": {"city": "Beijing", "name": "芍药居", "colour": "#aaa"}}, {"type": "Feature", "geometry": {"type": "Point", "coordinates": [116.3505107, 39.905948]}, "properties": {"city": "Beijing", "name": "复兴门", "colour": "#aaa"}}, {"type": "Feature", "geometry": {"type": "Point", "coordinates": [116.3343902, 39.9750927]}, "properties": {"city": "Beijing", "name": "知春路", "colour": "#aaa"}}, {"type": "Feature", "geometry": {"type": "Point", "coordinates": [116.3178241, 39.9061218]}, "properties": {"city": "Beijing", "name": "军事博物馆", "colour": "#aaa"}}, {"type": "Feature", "geometry": {"type": "Point", "coordinates": [116.3680141, 39.8983866]}, "properties": {"city": "Beijing", "name": "宣武门", "colour": "#aaa"}}, {"type": "Feature", "geometry": {"type": "Point", "coordinates": [116.4119567, 39.8997371]}, "properties": {"city": "Beijing", "name": "崇文门", "colour": "#aaa"}}, {"type": "Feature", "geometry": {"type": "Point", "coordinates": [116.3041253, 39.9061762]}, "properties": {"city": "Beijing", "name": "公主坟", "colour": "#aaa"}}, {"type": "Feature", "geometry": {"type": "Point", "coordinates": [116.412626, 39.9068579]}, "properties": {"city": "Beijing", "name": "东单", "colour": "#aaa"}}, {"type": "Feature", "geometry": {"type": "Point", "coordinates": [116.4554956, 39.9220995]}, "properties": {"city": "Beijing", "name": "呼家楼", "colour": "#aaa"}}, {"type": "Feature", "geometry": {"type": "Point", "coordinates": [116.3646715, 39.8352632]}, "properties": {"city": "Beijing", "name": "公益西桥", "colour": "#aaa"}}, {"type": "Feature", "geometry": {"type": "Point", "coordinates": [116.2874286, 39.9732969]}, "properties": {"city": "Beijing", "name": "巴沟", "colour": "#aaa"}}, {"type": "Feature", "geometry": {"type": "Point", "coordinates": [116.2960281, 39.8133778]}, "properties": {"city": "Beijing", "name": "郭公庄", "colour": "#aaa"}}, {"type": "Feature", "geometry": {"type": "Point", "coordinates": [116.4983103, 40.0325513]}, "properties": {"city": "Beijing", "name": "马泉营", "colour": "#aaa"}}, {"type": "Feature", "geometry": {"type": "Point", "coordinates": [116.2968997, 39.8786861]}, "properties": {"city": "Beijing", "name": "六里桥", "colour": "#aaa"}}, {"type": "Feature", "geometry": {"type": "Point", "coordinates": [116.3492348, 39.9392172]}, "properties": {"city": "Beijing", "name": "西直门", "colour": "#aaa"}}, {"type": "Feature", "geometry": {"type": "Point", "coordinates": [116.6819734, 39.9018256]}, "properties": {"city": "Beijing", "name": "北运河西", "colour": "#aaa"}}, {"type": "Feature", "geometry": {"type": "Point", "coordinates": [116.5094811, 39.9073037]}, "properties": {"city": "Beijing", "name": "四惠东", "colour": "#aaa"}}, {"type": "Feature", "geometry": {"type": "Point", "coordinates": [116.4893819, 39.9075722]}, "properties": {"city": "Beijing", "name": "四惠", "colour": "#aaa"}}, {"type": "Feature", "geometry": {"type": "Point", "coordinates": [116.4292321, 39.9071594]}, "properties": {"city": "Beijing", "name": "建国门", "colour": "#aaa"}}, {"type": "Feature", "geometry": {"type": "Point", "coordinates": [116.3664868, 39.9323165]}, "properties": {"city": "Beijing", "name": "平安里", "colour": "#aaa"}}, {"type": "Feature", "geometry": {"type": "Point", "coordinates": [116.3493426, 39.9311554]}, "properties": {"city": "Beijing", "name": "车公庄", "colour": "#aaa"}}, {"type": "Feature", "geometry": {"type": "Point", "coordinates": [116.3647807, 39.8444824]}, "properties": {"city": "Beijing", "name": "角门西", "colour": "#aaa"}}, {"type": "Feature", "geometry": {"type": "Point", "coordinates": [116.2888626, 39.9315586]}, "properties": {"city": "Beijing", "name": "慈寿寺", "colour": "#aaa"}}, {"type": "Feature", "geometry": {"type": "Point", "coordinates": [116.4556474, 39.9070164]}, "properties": {"city": "Beijing", "name": "国贸", "colour": "#aaa"}}, {"type": "Feature", "geometry": {"type": "Point", "coordinates": [116.4279504, 39.9230647]}, "properties": {"city": "Beijing", "name": "朝阳门", "colour": "#aaa"}}, {"type": "Feature", "geometry": {"type": "Point", "coordinates": [116.3544475, 40.0693567]}, "properties": {"city": "Beijing", "name": "霍营", "colour": "#aaa"}}, {"type": "Feature", "geometry": {"type": "Point", "coordinates": [116.3001813, 40.0517165]}, "properties": {"city": "Beijing", "name": "西二旗", "colour": "#aaa"}}, {"type": "Feature", "geometry": {"type": "Point", "coordinates": [116.3682035, 39.9057386]}, "properties": {"city": "Beijing", "name": "西单", "colour": "#aaa"}}, {"type": "Feature", "geometry": {"type": "Point", "coordinates": [116.3193762, 39.9323878]}, "properties": {"city": "Beijing", "name": "白石桥南", "colour": "#aaa"}}, {"type": "Feature", "geometry": {"type": "Point", "coordinates": [116.329755, 40.069525]}, "properties": {"city": "Beijing", "name": "回龙观", "colour": "#aaa"}}, {"type": "Feature", "geometry": {"type": "Point", "coordinates": [116.7111595, 39.9021403]}, "properties": {"city": "Beijing", "name": "郝家府", "colour": "#aaa"}}, {"type": "Feature", "geometry": {"type": "Point", "coordinates": [116.4219287, 39.8443821]}, "properties": {"city": "Beijing", "name": "宋家庄", "colour": "#aaa"}}, {"type": "Feature", "geometry": {"type": "Point", "coordinates": [116.5581345, 39.9226731]}, "properties": {"city": "Beijing", "name": "褡裢坡", "colour": "#aaa"}}, {"type": "Feature", "geometry": {"type": "Point", "coordinates": [116.428187, 40.0416631]}, "properties": {"city": "Beijing", "name": "北苑", "colour": "#aaa"}}, {"type": "Feature", "geometry": {"type": "Point", "coordinates": [116.2639202, 40.0110618]}, "properties": {"city": "Beijing", "name": "安河桥北", "colour": "#aaa"}}, {"type": "Feature", "geometry": {"type": "Point", "coordinates": [116.4156074, 39.8560744]}, "properties": {"city": "Beijing", "name": "刘家窑", "colour": "#aaa"}}, {"type": "Feature", "geometry": {"type": "Point", "coordinates": [116.3612739, 39.9394291]}, "properties": {"city": "Beijing", "name": "新街口", "colour": "#aaa"}}, {"type": "Feature", "geometry": {"type": "Point", "coordinates": [116.7416309, 39.9016234]}, "properties": {"city": "Beijing", "name": "潞城", "colour": "#aaa"}}, {"type": "Feature", "geometry": {"type": "Point", "coordinates": [116.3949169, 39.9063337]}, "properties": {"city": "Beijing", "name": "天安门东", "colour": "#aaa"}}, {"type": "Feature", "geometry": {"type": "Point", "coordinates": [116.4514799, 39.9597061]}, "properties": {"city": "Beijing", "name": "三元桥", "colour": "#aaa"}}, {"type": "Feature", "geometry": {"type": "Point", "coordinates": [116.3039811, 39.9312135]}, "properties": {"city": "Beijing", "name": "花园桥", "colour": "#aaa"}}, {"type": "Feature", "geometry": {"type": "Point", "coordinates": [116.3800445, 39.9317985]}, "properties": {"city": "Beijing", "name": "北海北", "colour": "#aaa"}}, {"type": "Feature", "geometry": {"type": "Point", "coordinates": [116.325694, 39.7622885]}, "properties": {"city": "Beijing", "name": "高米店南", "colour": "#aaa"}}, {"type": "Feature", "geometry": {"type": "Point", "coordinates": [116.5931678, 39.9080845]}, "properties": {"city": "Beijing", "name": "管庄", "colour": "#aaa"}}, {"type": "Feature", "geometry": {"type": "Point", "coordinates": [116.44415, 39.9070982]}, "properties": {"city": "Beijing", "name": "永安里", "colour": "#aaa"}}, {"type": "Feature", "geometry": {"type": "Point", "coordinates": [116.6127053, 39.9050518]}, "properties": {"city": "Beijing", "name": "八里桥", "colour": "#aaa"}}, {"type": "Feature", "geometry": {"type": "Point", "coordinates": [116.4082437, 40.0405075]}, "properties": {"city": "Beijing", "name": "立水桥南", "colour": "#aaa"}}, {"type": "Feature", "geometry": {"type": "Point", "coordinates": [116.1956719, 39.8599934]}, "properties": {"city": "Beijing", "name": "园博园", "colour": "#aaa"}}, {"type": "Feature", "geometry": {"type": "Point", "coordinates": [116.3317017, 39.9914779]}, "properties": {"city": "Beijing", "name": "五道口", "colour": "#aaa"}}, {"type": "Feature", "geometry": {"type": "Point", "coordinates": [116.2914302, 39.8308852]}, "properties": {"city": "Beijing", "name": "科怡路", "colour": "#aaa"}}, {"type": "Feature", "geometry": {"type": "Point", "coordinates": [116.5108366, 39.9216819]}, "properties": {"city": "Beijing", "name": "青年路", "colour": "#aaa"}}, {"type": "Feature", "geometry": {"type": "Point", "coordinates": [116.2880393, 39.9574108]}, "properties": {"city": "Beijing", "name": "长春桥", "colour": "#aaa"}}, {"type": "Feature", "geometry": {"type": "Point", "coordinates": [116.2834171, 39.9643309]}, "properties": {"city": "Beijing", "name": "火器营", "colour": "#aaa"}}, {"type": "Feature", "geometry": {"type": "Point", "coordinates": [116.3672738, 39.9147796]}, "properties": {"city": "Beijing", "name": "灵境胡同", "colour": "#aaa"}}, {"type": "Feature", "geometry": {"type": "Point", "coordinates": [116.3260337, 39.7518055]}, "properties": {"city": "Beijing", "name": "枣园", "colour": "#aaa"}}, {"type": "Feature", "geometry": {"type": "Point", "coordinates": [116.6314069, 39.9027423]}, "properties": {"city": "Beijing", "name": "通州北苑", "colour": "#aaa"}}, {"type": "Feature", "geometry": {"type": "Point", "coordinates": [116.5709843, 39.9090728]}, "properties": {"city": "Beijing", "name": "双桥", "colour": "#aaa"}}, {"type": "Feature", "geometry": {"type": "Point", "coordinates": [116.4066402, 40.0737747]}, "properties": {"city": "Beijing", "name": "天通苑", "colour": "#aaa"}}, {"type": "Feature", "geometry": {"type": "Point", "coordinates": [116.5488365, 39.9080422]}, "properties": {"city": "Beijing", "name": "传媒大学", "colour": "#aaa"}}, {"type": "Feature", "geometry": {"type": "Point", "coordinates": [116.4112952, 39.9322844]}, "properties": {"city": "Beijing", "name": "张自忠路", "colour": "#aaa"}}, {"type": "Feature", "geometry": {"type": "Point", "coordinates": [116.4532399, 39.8267264]}, "properties": {"city": "Beijing", "name": "小红门", "colour": "#aaa"}}, {"type": "Feature", "geometry": {"type": "Point", "coordinates": [116.4846211, 39.8056285]}, "properties": {"city": "Beijing", "name": "亦庄文化园", "colour": "#aaa"}}, {"type": "Feature", "geometry": {"type": "Point", "coordinates": [116.4995335, 39.8017615]}, "properties": {"city": "Beijing", "name": "万源街", "colour": "#aaa"}}, {"type": "Feature", "geometry": {"type": "Point", "coordinates": [116.5564358, 39.7825504]}, "properties": {"city": "Beijing", "name": "经海路", "colour": "#aaa"}}, {"type": "Feature", "geometry": {"type": "Point", "coordinates": [116.4110688, 40.0021697]}, "properties": {"city": "Beijing", "name": "大屯路东", "colour": "#aaa"}}, {"type": "Feature", "geometry": {"type": "Point", "coordinates": [116.4809035, 40.0020276]}, "properties": {"city": "Beijing", "name": "望京东", "colour": "#aaa"}}, {"type": "Feature", "geometry": {"type": "Point", "coordinates": [116.3747659, 39.9750859]}, "properties": {"city": "Beijing", "name": "健德门", "colour": "#aaa"}}, {"type": "Feature", "geometry": {"type": "Point", "coordinates": [116.3196813, 39.9225738]}, "properties": {"city": "Beijing", "name": "白堆子", "colour": "#aaa"}}, {"type": "Feature", "geometry": {"type": "Point", "coordinates": [116.1844475, 39.9061423]}, "properties": {"city": "Beijing", "name": "古城", "colour": "#aaa"}}, {"type": "Feature", "geometry": {"type": "Point", "coordinates": [116.4418815, 39.8445478]}, "properties": {"city": "Beijing", "name": "成寿寺", "colour": "#aaa"}}, {"type": "Feature", "geometry": {"type": "Point", "coordinates": [116.4556066, 39.9322013]}, "properties": {"city": "Beijing", "name": "团结湖", "colour": "#aaa"}}, {"type": "Feature", "geometry": {"type": "Point", "coordinates": [116.4562886, 39.940129]}, "properties": {"city": "Beijing", "name": "农业展览馆", "colour": "#aaa"}}, {"type": "Feature", "geometry": {"type": "Point", "coordinates": [116.4562709, 39.9482568]}, "properties": {"city": "Beijing", "name": "亮马桥", "colour": "#aaa"}}, {"type": "Feature", "geometry": {"type": "Point", "coordinates": [116.3991828, 39.9758344]}, "properties": {"city": "Beijing", "name": "安贞门", "colour": "#aaa"}}, {"type": "Feature", "geometry": {"type": "Point", "coordinates": [116.3630635, 39.9749126]}, "properties": {"city": "Beijing", "name": "牡丹园", "colour": "#aaa"}}, {"type": "Feature", "geometry": {"type": "Point", "coordinates": [116.3477745, 39.9748659]}, "properties": {"city": "Beijing", "name": "西土城", "colour": "#aaa"}}, {"type": "Feature", "geometry": {"type": "Point", "coordinates": [116.2999736, 39.9743281]}, "properties": {"city": "Beijing", "name": "苏州街", "colour": "#aaa"}}, {"type": "Feature", "geometry": {"type": "Point", "coordinates": [116.318448, 39.9312548]}, "properties": {"city": "Beijing", "name": "白石桥南", "colour": "#aaa"}}, {"type": "Feature", "geometry": {"type": "Point", "coordinates": [116.4725535, 40.0263879]}, "properties": {"city": "Beijing", "name": "善各庄", "colour": "#aaa"}}, {"type": "Feature", "geometry": {"type": "Point", "coordinates": [116.388548, 39.9554944]}, "properties": {"city": "Beijing", "name": "安德里北街", "colour": "#aaa"}}, {"type": "Feature", "geometry": {"type": "Point", "coordinates": [116.2878965, 39.9451275]}, "properties": {"city": "Beijing", "name": "车道沟", "colour": "#aaa"}}, {"type": "Feature", "geometry": {"type": "Point", "coordinates": [116.2981946, 39.8573762]}, "properties": {"city": "Beijing", "name": "泥洼", "colour": "#aaa"}}, {"type": "Feature", "geometry": {"type": "Point", "coordinates": [116.2919093, 39.9218994]}, "properties": {"city": "Beijing", "name": "西钓鱼台", "colour": "#aaa"}}, {"type": "Feature", "geometry": {"type": "Point", "coordinates": [116.3043065, 39.8961589]}, "properties": {"city": "Beijing", "name": "莲花桥", "colour": "#aaa"}}, {"type": "Feature", "geometry": {"type": "Point", "coordinates": [116.2975967, 39.8496396]}, "properties": {"city": "Beijing", "name": "丰台站", "colour": "#aaa"}}, {"type": "Feature", "geometry": {"type": "Point", "coordinates": [116.3151056, 39.8935411]}, "properties": {"city": "Beijing", "name": "北京西站", "colour": "#aaa"}}, {"type": "Feature", "geometry": {"type": "Point", "coordinates": [116.3466428, 39.9996659]}, "properties": {"city": "Beijing", "name": "六道口", "colour": "#aaa"}}, {"type": "Feature", "geometry": {"type": "Point", "coordinates": [116.4555255, 39.9159595]}, "properties": {"city": "Beijing", "name": "金台夕照", "colour": "#aaa"}}, {"type": "Feature", "geometry": {"type": "Point", "coordinates": [116.4067673, 40.0820885]}, "properties": {"city": "Beijing", "name": "天通苑北", "colour": "#aaa"}}, {"type": "Feature", "geometry": {"type": "Point", "coordinates": [116.4119342, 39.9396965]}, "properties": {"city": "Beijing", "name": "北新桥", "colour": "#aaa"}}, {"type": "Feature", "geometry": {"type": "Point", "coordinates": [116.1649357, 39.9385482]}, "properties": {"city": "Beijing", "name": "福寿岭", "colour": "#aaa"}}, {"type": "Feature", "geometry": {"type": "Point", "coordinates": [116.156827, 39.9219237]}, "properties": {"city": "Beijing", "name": "金安桥", "colour": "#aaa"}}, {"type": "Feature", "geometry": {"type": "Point", "coordinates": [116.1795516, 39.9264588]}, "properties": {"city": "Beijing", "name": "杨庄", "colour": "#aaa"}}, {"type": "Feature", "geometry": {"type": "Point", "coordinates": [116.2005982, 39.9324935]}, "properties": {"city": "Beijing", "name": "西黄村", "colour": "#aaa"}}, {"type": "Feature", "geometry": {"type": "Point", "coordinates": [116.2208854, 39.9314101]}, "properties": {"city": "Beijing", "name": "廖公庄", "colour": "#aaa"}}, {"type": "Feature", "geometry": {"type": "Point", "coordinates": [116.2468822, 39.9283896]}, "properties": {"city": "Beijing", "name": "田村", "colour": "#aaa"}}, {"type": "Feature", "geometry": {"type": "Point", "coordinates": [116.3921937, 39.8893117]}, "properties": {"city": "Beijing", "name": "珠市口", "colour": "#aaa"}}, {"type": "Feature", "geometry": {"type": "Point", "coordinates": [116.3930393, 39.8647562]}, "properties": {"city": "Beijing", "name": "永定门外", "colour": "#aaa"}}, {"type": "Feature", "geometry": {"type": "Point", "coordinates": [116.3932245, 39.858181]}, "properties": {"city": "Beijing", "name": "木樨园", "colour": "#aaa"}}, {"type": "Feature", "geometry": {"type": "Point", "coordinates": [116.3940324, 39.8506537]}, "properties": {"city": "Beijing", "name": "海户屯", "colour": "#aaa"}}, {"type": "Feature", "geometry": {"type": "Point", "coordinates": [116.3948539, 39.8355481]}, "properties": {"city": "Beijing", "name": "大红门南", "colour": "#aaa"}}, {"type": "Feature", "geometry": {"type": "Point", "coordinates": [116.3958329, 39.8135634]}, "properties": {"city": "Beijing", "name": "和义", "colour": "#aaa"}}, {"type": "Feature", "geometry": {"type": "Point", "coordinates": [116.4030681, 39.8037787]}, "properties": {"city": "Beijing", "name": "东高地", "colour": "#aaa"}}, {"type": "Feature", "geometry": {"type": "Point", "coordinates": [116.4124409, 39.797982]}, "properties": {"city": "Beijing", "name": "火箭万源", "colour": "#aaa"}}, {"type": "Feature", "geometry": {"type": "Point", "coordinates": [116.4174105, 39.7837675]}, "properties": {"city": "Beijing", "name": "五福堂", "colour": "#aaa"}}, {"type": "Feature", "geometry": {"type": "Point", "coordinates": [116.4045447, 39.9236287]}, "properties": {"city": "Beijing", "name": "中国美术馆", "colour": "#aaa"}}, {"type": "Feature", "geometry": {"type": "Point", "coordinates": [116.3851622, 39.9059702]}, "properties": {"city": "Beijing", "name": "天安门西", "colour": "#aaa"}}, {"type": "Feature", "geometry": {"type": "Point", "coordinates": [116.4355574, 39.7712874]}, "properties": {"city": "Beijing", "name": "德茂", "colour": "#aaa"}}, {"type": "Feature", "geometry": {"type": "Point", "coordinates": [116.4428265, 39.7593594]}, "properties": {"city": "Beijing", "name": "瀛海", "colour": "#aaa"}}, {"type": "Feature", "geometry": {"type": "Point", "coordinates": [116.3925037, 39.8806517]}, "properties": {"city": "Beijing", "name": "天桥", "colour": "#aaa"}}, {"type": "Feature", "geometry": {"type": "Point", "coordinates": [116.1719509, 39.9248346]}, "properties": {"city": "Beijing", "name": "苹果园", "colour": "#aaa"}}, {"type": "Feature", "geometry": {"type": "Point", "coordinates": [116.3927722, 39.8440139]}, "properties": {"city": "Beijing", "name": "大红门", "colour": "#aaa"}}, {"type": "Feature", "geometry": {"type": "Point", "coordinates": [116.3213598, 39.8889326]}, "properties": {"city": "Beijing", "name": "湾子", "colour": "#aaa"}}, {"type": "Feature", "geometry": {"type": "Point", "coordinates": [116.4280068, 39.932287]}, "properties": {"city": "Beijing", "name": "东四十条", "colour": "#aaa"}}, {"type": "Feature", "geometry": {"type": "Point", "coordinates": [116.3966927, 39.9316439]}, "properties": {"city": "Beijing", "name": "南锣鼓巷", "colour": "#aaa"}}, {"type": "Feature", "geometry": {"type": "Point", "coordinates": [116.3976888, 39.9323094]}, "properties": {"city": "Beijing", "name": "南锣鼓巷", "colour": "#aaa"}}, {"type": "Feature", "geometry": {"type": "Point", "coordinates": [116.2713671, 40.0011928]}, "properties": {"city": "Beijing", "name": "北宫门站", "colour": "#aaa"}}, {"type": "Feature", "geometry": {"type": "Point", "coordinates": [116.2855319, 39.9966984]}, "properties": {"city": "Beijing", "name": "西苑", "colour": "#aaa"}}, {"type": "Feature", "geometry": {"type": "Point", "coordinates": [116.4723407, 39.9215918]}, "properties": {"city": "Beijing", "name": "金台路", "colour": "#aaa"}}, {"type": "Feature", "geometry": {"type": "Point", "coordinates": [116.3115201, 39.9747132]}, "properties": {"city": "Beijing", "name": "海淀黄庄", "colour": "#aaa"}}, {"type": "Feature", "geometry": {"type": "Point", "coordinates": [116.3315051, 39.9061161]}, "properties": {"city": "Beijing", "name": "木樨地", "colour": "#aaa"}}, {"type": "Feature", "geometry": {"type": "Point", "coordinates": [116.3465697, 39.9058662]}, "properties": {"city": "Beijing", "name": "南礼士路", "colour": "#aaa"}}, {"type": "Feature", "geometry": {"type": "Point", "coordinates": [116.4052789, 39.9069496]}, "properties": {"city": "Beijing", "name": "王府井", "colour": "#aaa"}}, {"type": "Feature", "geometry": {"type": "Point", "coordinates": [116.2887714, 39.9062159]}, "properties": {"city": "Beijing", "name": "万寿路", "colour": "#aaa"}}, {"type": "Feature", "geometry": {"type": "Point", "coordinates": [116.2680336, 39.9062214]}, "properties": {"city": "Beijing", "name": "五棵松", "colour": "#aaa"}}, {"type": "Feature", "geometry": {"type": "Point", "coordinates": [116.2064861, 39.9061539]}, "properties": {"city": "Beijing", "name": "八角游乐园（封闭改造中）", "colour": "#aaa"}}, {"type": "Feature", "geometry": {"type": "Point", "coordinates": [116.2296796, 39.9061888]}, "properties": {"city": "Beijing", "name": "八宝山", "colour": "#aaa"}}, {"type": "Feature", "geometry": {"type": "Point", "coordinates": [116.2468996, 39.9061931]}, "properties": {"city": "Beijing", "name": "玉泉路", "colour": "#aaa"}}, {"type": "Feature", "geometry": {"type": "Point", "coordinates": [116.3390137, 39.9652731]}, "properties": {"city": "Beijing", "name": "大钟寺", "colour": "#aaa"}}, {"type": "Feature", "geometry": {"type": "Point", "coordinates": [116.425641, 39.9669843]}, "properties": {"city": "Beijing", "name": "光熙门", "colour": "#aaa"}}, {"type": "Feature", "geometry": {"type": "Point", "coordinates": [116.4266211, 39.9568025]}, "properties": {"city": "Beijing", "name": "柳芳", "colour": "#aaa"}}, {"type": "Feature", "geometry": {"type": "Point", "coordinates": [116.3140843, 40.0317646]}, "properties": {"city": "Beijing", "name": "上地", "colour": "#aaa"}}, {"type": "Feature", "geometry": {"type": "Point", "coordinates": [116.3132033, 40.0695732]}, "properties": {"city": "Beijing", "name": "龙泽", "colour": "#aaa"}}, {"type": "Feature", "geometry": {"type": "Point", "coordinates": [116.7018094, 39.9021187]}, "properties": {"city": "Beijing", "name": "北运河东", "colour": "#aaa"}}, {"type": "Feature", "geometry": {"type": "Point", "coordinates": [116.6802742, 39.8707455]}, "properties": {"city": "Beijing", "name": "土桥", "colour": "#aaa"}}, {"type": "Feature", "geometry": {"type": "Point", "coordinates": [116.3670609, 39.947325]}, "properties": {"city": "Beijing", "name": "积水潭", "colour": "#aaa"}}, {"type": "Feature", "geometry": {"type": "Point", "coordinates": [116.3929416, 39.8982814]}, "properties": {"city": "Beijing", "name": "前门", "colour": "#aaa"}}, {"type": "Feature", "geometry": {"type": "Point", "coordinates": [116.3500666, 39.922313]}, "properties": {"city": "Beijing", "name": "阜成门", "colour": "#aaa"}}, {"type": "Feature", "geometry": {"type": "Point", "coordinates": [116.3572147, 39.8980394]}, "properties": {"city": "Beijing", "name": "长椿街", "colour": "#aaa"}}, {"type": "Feature", "geometry": {"type": "Point", "coordinates": [116.4020676, 39.9476674]}, "properties": {"city": "Beijing", "name": "安定门", "colour": "#aaa"}}, {"type": "Feature", "geometry": {"type": "Point", "coordinates": [116.5475285, 39.8479616]}, "properties": {"city": "Beijing", "name": "黄厂", "colour": "#aaa"}}, {"type": "Feature", "geometry": {"type": "Point", "coordinates": [116.5641046, 39.8555351]}, "properties": {"city": "Beijing", "name": "郎辛庄", "colour": "#aaa"}}, {"type": "Feature", "geometry": {"type": "Point", "coordinates": [116.5927827, 39.8577135]}, "properties": {"city": "Beijing", "name": "黑庄户", "colour": "#aaa"}}, {"type": "Feature", "geometry": {"type": "Point", "coordinates": [116.6267073, 39.8624408]}, "properties": {"city": "Beijing", "name": "万盛西", "colour": "#aaa"}}, {"type": "Feature", "geometry": {"type": "Point", "coordinates": [116.6890142, 39.8553801]}, "properties": {"city": "Beijing", "name": "花庄", "colour": "#aaa"}}, {"type": "Feature", "geometry": {"type": "Point", "coordinates": [116.673529, 39.8481659]}, "properties": {"city": "Beijing", "name": "环球度假区", "colour": "#aaa"}}, {"type": "Feature", "geometry": {"type": "Point", "coordinates": [116.3140715, 39.8431792]}, "properties": {"city": "Beijing", "name": "首经贸", "colour": "#aaa"}}, {"type": "Feature", "geometry": {"type": "Point", "coordinates": [116.3086826, 40.0397784]}, "properties": {"city": "Beijing", "name": "清河站", "colour": "#aaa"}}, {"type": "Feature", "geometry": {"type": "Point", "coordinates": [116.6795103, 39.8618619]}, "properties": {"city": "Beijing", "name": "高楼金", "colour": "#aaa"}}, {"type": "Feature", "geometry": {"type": "Point", "coordinates": [116.4427211, 39.8328015]}, "properties": {"city": "Beijing", "name": "肖村", "colour": "#aaa"}}, {"type": "Feature", "geometry": {"type": "Point", "coordinates": [116.3067798, 39.818274]}, "properties": {"city": "Beijing", "name": "白盆窑", "colour": "#aaa"}}, {"type": "Feature", "geometry": {"type": "Point", "coordinates": [116.3139452, 39.8278468]}, "properties": {"city": "Beijing", "name": "花乡东桥", "colour": "#aaa"}}, {"type": "Feature", "geometry": {"type": "Point", "coordinates": [116.2906678, 39.8395949]}, "properties": {"city": "Beijing", "name": "丰台南路", "colour": "#aaa"}}, {"type": "Feature", "geometry": {"type": "Point", "coordinates": [116.2912488, 39.8239138]}, "properties": {"city": "Beijing", "name": "丰台科技园", "colour": "#aaa"}}, {"type": "Feature", "geometry": {"type": "Point", "coordinates": [116.2877862, 39.8541721]}, "properties": {"city": "Beijing", "name": "丰台东大街", "colour": "#aaa"}}, {"type": "Feature", "geometry": {"type": "Point", "coordinates": [116.308808, 39.8857143]}, "properties": {"city": "Beijing", "name": "六里桥东", "colour": "#aaa"}}, {"type": "Feature", "geometry": {"type": "Point", "coordinates": [116.322677, 39.7883939]}, "properties": {"city": "Beijing", "name": "西红门", "colour": "#aaa"}}, {"type": "Feature", "geometry": {"type": "Point", "coordinates": [116.3244805, 39.7730301]}, "properties": {"city": "Beijing", "name": "高米店北", "colour": "#aaa"}}, {"type": "Feature", "geometry": {"type": "Point", "coordinates": [116.3036739, 39.9982949]}, "properties": {"city": "Beijing", "name": "圆明园", "colour": "#aaa"}}, {"type": "Feature", "geometry": {"type": "Point", "coordinates": [116.3097264, 39.9907813]}, "properties": {"city": "Beijing", "name": "北京大学东门", "colour": "#aaa"}}, {"type": "Feature", "geometry": {"type": "Point", "coordinates": [116.3103787, 39.9826574]}, "properties": {"city": "Beijing", "name": "中关村", "colour": "#aaa"}}, {"type": "Feature", "geometry": {"type": "Point", "coordinates": [116.3157286, 39.965744]}, "properties": {"city": "Beijing", "name": "人民大学", "colour": "#aaa"}}, {"type": "Feature", "geometry": {"type": "Point", "coordinates": [116.3171815, 39.9563044]}, "properties": {"city": "Beijing", "name": "魏公村", "colour": "#aaa"}}, {"type": "Feature", "geometry": {"type": "Point", "coordinates": [116.3668145, 39.9225455]}, "properties": {"city": "Beijing", "name": "西四", "colour": "#aaa"}}, {"type": "Feature", "geometry": {"type": "Point", "coordinates": [116.3682029, 39.8774369]}, "properties": {"city": "Beijing", "name": "陶然亭", "colour": "#aaa"}}, {"type": "Feature", "geometry": {"type": "Point", "coordinates": [116.365207, 39.8516352]}, "properties": {"city": "Beijing", "name": "马家堡", "colour": "#aaa"}}, {"type": "Feature", "geometry": {"type": "Point", "coordinates": [116.4122352, 39.9573887]}, "properties": {"city": "Beijing", "name": "和平里北街", "colour": "#aaa"}}, {"type": "Feature", "geometry": {"type": "Point", "coordinates": [116.4145694, 39.8822567]}, "properties": {"city": "Beijing", "name": "天坛东门", "colour": "#aaa"}}, {"type": "Feature", "geometry": {"type": "Point", "coordinates": [116.5730712, 39.9228365]}, "properties": {"city": "Beijing", "name": "黄渠", "colour": "#aaa"}}, {"type": "Feature", "geometry": {"type": "Point", "coordinates": [116.3379903, 39.931061]}, "properties": {"city": "Beijing", "name": "车公庄西", "colour": "#aaa"}}, {"type": "Feature", "geometry": {"type": "Point", "coordinates": [116.3273554, 39.8431736]}, "properties": {"city": "Beijing", "name": "纪家庙", "colour": "#aaa"}}, {"type": "Feature", "geometry": {"type": "Point", "coordinates": [116.4455603, 39.921482]}, "properties": {"city": "Beijing", "name": "东大桥", "colour": "#aaa"}}, {"type": "Feature", "geometry": {"type": "Point", "coordinates": [116.3229284, 39.9749496]}, "properties": {"city": "Beijing", "name": "知春里", "colour": "#aaa"}}, {"type": "Feature", "geometry": {"type": "Point", "coordinates": [116.4074126, 39.8444927]}, "properties": {"city": "Beijing", "name": "石榴庄", "colour": "#aaa"}}, {"type": "Feature", "geometry": {"type": "Point", "coordinates": [116.4547308, 39.8056107]}, "properties": {"city": "Beijing", "name": "旧宫", "colour": "#aaa"}}, {"type": "Feature", "geometry": {"type": "Point", "coordinates": [116.4742673, 39.801744]}, "properties": {"city": "Beijing", "name": "亦庄桥", "colour": "#aaa"}}, {"type": "Feature", "geometry": {"type": "Point", "coordinates": [116.507463, 39.7920207]}, "properties": {"city": "Beijing", "name": "荣京东街", "colour": "#aaa"}}, {"type": "Feature", "geometry": {"type": "Point", "coordinates": [116.515857, 39.7816956]}, "properties": {"city": "Beijing", "name": "荣昌东街", "colour": "#aaa"}}, {"type": "Feature", "geometry": {"type": "Point", "coordinates": [116.5960819, 39.8115669]}, "properties": {"city": "Beijing", "name": "亦庄火车站", "colour": "#aaa"}}, {"type": "Feature", "geometry": {"type": "Point", "coordinates": [116.5856212, 39.8025523]}, "properties": {"city": "Beijing", "name": "次渠", "colour": "#aaa"}}, {"type": "Feature", "geometry": {"type": "Point", "coordinates": [116.2854666, 39.8064524]}, "properties": {"city": "Beijing", "name": "大葆台", "colour": "#aaa"}}, {"type": "Feature", "geometry": {"type": "Point", "coordinates": [116.2065044, 39.7625141]}, "properties": {"city": "Beijing", "name": "长阳", "colour": "#aaa"}}, {"type": "Feature", "geometry": {"type": "Point", "coordinates": [116.1833797, 39.759377]}, "properties": {"city": "Beijing", "name": "篱笆房", "colour": "#aaa"}}, {"type": "Feature", "geometry": {"type": "Point", "coordinates": [116.5493705, 40.068903]}, "properties": {"city": "Beijing", "name": "国展", "colour": "#aaa"}}, {"type": "Feature", "geometry": {"type": "Point", "coordinates": [116.5518402, 40.0833437]}, "properties": {"city": "Beijing", "name": "花梨坎", "colour": "#aaa"}}, {"type": "Feature", "geometry": {"type": "Point", "coordinates": [116.6555297, 39.9174644]}, "properties": {"city": "Beijing", "name": "通州北关", "colour": "#aaa"}}, {"type": "Feature", "geometry": {"type": "Point", "coordinates": [116.6334973, 39.9259297]}, "properties": {"city": "Beijing", "name": "物资学院路", "colour": "#aaa"}}, {"type": "Feature", "geometry": {"type": "Point", "coordinates": [116.6103044, 39.9235091]}, "properties": {"city": "Beijing", "name": "草房", "colour": "#aaa"}}, {"type": "Feature", "geometry": {"type": "Point", "coordinates": [116.6728594, 39.8742944]}, "properties": {"city": "Beijing", "name": "临河里", "colour": "#aaa"}}, {"type": "Feature", "geometry": {"type": "Point", "coordinates": [116.651623, 39.889165]}, "properties": {"city": "Beijing", "name": "九棵树", "colour": "#aaa"}}, {"type": "Feature", "geometry": {"type": "Point", "coordinates": [116.6407547, 39.8922857]}, "properties": {"city": "Beijing", "name": "果园", "colour": "#aaa"}}, {"type": "Feature", "geometry": {"type": "Point", "coordinates": [116.288183, 40.093573]}, "properties": {"city": "Beijing", "name": "生命科学园", "colour": "#aaa"}}, {"type": "Feature", "geometry": {"type": "Point", "coordinates": [116.387583, 39.9841327]}, "properties": {"city": "Beijing", "name": "奥体中心", "colour": "#aaa"}}, {"type": "Feature", "geometry": {"type": "Point", "coordinates": [116.3138654, 39.8429666]}, "properties": {"city": "Beijing", "name": "首经贸", "colour": "#aaa"}}, {"type": "Feature", "geometry": {"type": "Point", "coordinates": [116.3166795, 39.8535213]}, "properties": {"city": "Beijing", "name": "东管头南", "colour": "#aaa"}}, {"type": "Feature", "geometry": {"type": "Point", "coordinates": [116.2425658, 39.8473]}, "properties": {"city": "Beijing", "name": "洪泰庄", "colour": "#aaa"}}, {"type": "Feature", "geometry": {"type": "Point", "coordinates": [116.3733186, 39.8641006]}, "properties": {"city": "Beijing", "name": "北京南站", "colour": "#aaa"}}, {"type": "Feature", "geometry": {"type": "Point", "coordinates": [116.5255476, 39.9082528]}, "properties": {"city": "Beijing", "name": "高碑店", "colour": "#aaa"}}, {"type": "Feature", "geometry": {"type": "Point", "coordinates": [116.3454124, 39.8445995]}, "properties": {"city": "Beijing", "name": "草桥", "colour": "#aaa"}}, {"type": "Feature", "geometry": {"type": "Point", "coordinates": [116.4544834, 39.8635284]}, "properties": {"city": "Beijing", "name": "十里河", "colour": "#aaa"}}, {"type": "Feature", "geometry": {"type": "Point", "coordinates": [116.4721115, 39.9145679]}, "properties": {"city": "Beijing", "name": "红庙", "colour": "#aaa"}}, {"type": "Feature", "geometry": {"type": "Point", "coordinates": [116.3497096, 39.859977]}, "properties": {"city": "Beijing", "name": "西铁营", "colour": "#aaa"}}, {"type": "Feature", "geometry": {"type": "Point", "coordinates": [116.4049246, 39.9147047]}, "properties": {"city": "Beijing", "name": "金鱼胡同", "colour": "#aaa"}}, {"type": "Feature", "geometry": {"type": "Point", "coordinates": [116.1585873, 39.9138827]}, "properties": {"city": "Beijing", "name": "北辛安", "colour": "#aaa"}}, {"type": "Feature", "geometry": {"type": "Point", "coordinates": [116.1586061, 39.9076653]}, "properties": {"city": "Beijing", "name": "新首钢", "colour": "#aaa"}}, {"type": "Feature", "geometry": {"type": "Point", "coordinates": [116.1552373, 39.9209099]}, "properties": {"city": "Beijing", "name": "金安桥", "colour": "#aaa"}}, {"type": "Feature", "geometry": {"type": "Point", "coordinates": [116.3402526, 39.8225567]}, "properties": {"city": "Beijing", "name": "新发地", "colour": "#aaa"}}, {"type": "Feature", "geometry": {"type": "Point", "coordinates": [116.6097731, 40.0515344]}, "properties": {"city": "Beijing", "name": "首都机场3号航站楼", "colour": "#aaa"}}, {"type": "Feature", "geometry": {"type": "Point", "coordinates": [116.5871495, 40.0780123]}, "properties": {"city": "Beijing", "name": "首都机场2号航站楼", "colour": "#aaa"}}, {"type": "Feature", "geometry": {"type": "Point", "coordinates": [116.4898314, 39.8430584]}, "properties": {"city": "Beijing", "name": "十八里店", "colour": "#aaa"}}, {"type": "Feature", "geometry": {"type": "Point", "coordinates": [116.547173, 39.8175347]}, "properties": {"city": "Beijing", "name": "北神树", "colour": "#aaa"}}, {"type": "Feature", "geometry": {"type": "Point", "coordinates": [116.6052556, 39.7918725]}, "properties": {"city": "Beijing", "name": "嘉会湖", "colour": "#aaa"}}, {"type": "Feature", "geometry": {"type": "Point", "coordinates": [116.3275776, 39.9310721]}, "properties": {"city": "Beijing", "name": "二里沟", "colour": "#aaa"}}, {"type": "Feature", "geometry": {"type": "Point", "coordinates": [116.1713056, 39.9243597]}, "properties": {"city": "Beijing", "name": "苹果园", "colour": "#aaa"}}, {"type": "Feature", "geometry": {"type": "Point", "coordinates": [116.1498174, 39.9323418]}, "properties": {"city": "Beijing", "name": "模式口", "colour": "#aaa"}}, {"type": "Feature", "geometry": {"type": "Point", "coordinates": [116.4706068, 39.855252]}, "properties": {"city": "Beijing", "name": "周家庄", "colour": "#aaa"}}, {"type": "Feature", "geometry": {"type": "Point", "coordinates": [116.5859058, 39.8025261]}, "properties": {"city": "Beijing", "name": "次渠", "colour": "#aaa"}}, {"type": "Feature", "geometry": {"type": "Point", "coordinates": [116.5706243, 39.8085973]}, "properties": {"city": "Beijing", "name": "次渠北", "colour": "#aaa"}}, {"type": "Feature", "geometry": {"type": "Point", "coordinates": [116.3658244, 39.9462372]}, "properties": {"city": "Beijing", "name": "积水潭", "colour": "#aaa"}}, {"type": "Feature", "geometry": {"type": "Point", "coordinates": [116.364124, 39.9667708]}, "properties": {"city": "Beijing", "name": "北太平庄", "colour": "#aaa"}}, {"type": "Feature", "geometry": {"type": "Point", "coordinates": [116.3617483, 39.9320831]}, "properties": {"city": "Beijing", "name": "平安里", "colour": "#aaa"}}, {"type": "Feature", "geometry": {"type": "Point", "coordinates": [116.3651624, 39.9313232]}, "properties": {"city": "Beijing", "name": "平安里", "colour": "#aaa"}}, {"type": "Feature", "geometry": {"type": "Point", "coordinates": [116.3636148, 39.9750791]}, "properties": {"city": "Beijing", "name": "牡丹园", "colour": "#aaa"}}, {"type": "Feature", "geometry": {"type": "Point", "coordinates": [116.3428438, 39.8460959]}, "properties": {"city": "Beijing", "name": "草桥", "colour": "#aaa"}}, {"type": "Feature", "geometry": {"type": "Point", "coordinates": [116.3424361, 39.8461391]}, "properties": {"city": "Beijing", "name": "草桥", "colour": "#aaa"}}, {"type": "Feature", "geometry": {"type": "Point", "coordinates": [116.3580843, 39.8626316]}, "properties": {"city": "Beijing", "name": "景风门", "colour": "#aaa"}}, {"type": "Feature", "geometry": {"type": "Point", "coordinates": [116.1485756, 39.9470576]}, "properties": {"city": "Beijing", "name": "五三", "colour": "#aaa"}}, {"type": "Feature", "geometry": {"type": "Point", "coordinates": [116.2684248, 40.0313885]}, "properties": {"city": "Beijing", "name": "马连洼", "colour": "#aaa"}}, {"type": "Feature", "geometry": {"type": "Point", "coordinates": [116.359749, 39.8110444]}, "properties": {"city": "Beijing", "name": "新宫", "colour": "#aaa"}}, {"type": "Feature", "geometry": {"type": "Point", "coordinates": [116.3571516, 39.9087765]}, "properties": {"city": "Beijing", "name": "太平桥", "colour": "#aaa"}}, {"type": "Feature", "geometry": {"type": "Point", "coordinates": [116.2666477, 39.8338003]}, "properties": {"city": "Beijing", "name": "看丹", "colour": "#aaa"}}, {"type": "Feature", "geometry": {"type": "Point", "coordinates": [116.3472515, 39.9868013]}, "properties": {"city": "Beijing", "name": "学院桥", "colour": "#aaa"}}, {"type": "Feature", "geometry": {"type": "Point", "coordinates": [116.3457528, 40.0136302]}, "properties": {"city": "Beijing", "name": "学知园", "colour": "#aaa"}}, {"type": "Feature", "geometry": {"type": "Point", "coordinates": [116.3367846, 40.0338705]}, "properties": {"city": "Beijing", "name": "清河小营桥", "colour": "#aaa"}}, {"type": "Feature", "geometry": {"type": "Point", "coordinates": [116.4285738, 39.941652]}, "properties": {"city": "Beijing", "name": "东直门", "colour": "#aaa"}}, {"type": "Feature", "geometry": {"type": "Point", "coordinates": [116.4276776, 39.9397031]}, "properties": {"city": "Beijing", "name": "东直门", "colour": "#aaa"}}, {"type": "Feature", "geometry": {"type": "Point", "coordinates": [116.4294829, 39.9400378]}, "properties": {"city": "Beijing", "name": "东直门", "colour": "#aaa"}}, {"type": "Feature", "geometry": {"type": "Point", "coordinates": [116.5519702, 39.9746043]}, "properties": {"city": "Beijing", "name": "东坝北", "colour": "#aaa"}}, {"type": "Feature", "geometry": {"type": "Point", "coordinates": [116.4359844, 40.0671005]}, "properties": {"city": "Beijing", "name": "天通苑东", "colour": "#aaa"}}, {"type": "Feature", "geometry": {"type": "Point", "coordinates": [116.4360139, 40.0496531]}, "properties": {"city": "Beijing", "name": "清河营", "colour": "#aaa"}}, {"type": "Feature", "geometry": {"type": "Point", "coordinates": [116.4355362, 40.0330877]}, "properties": {"city": "Beijing", "name": "红军营", "colour": "#aaa"}}, {"type": "Feature", "geometry": {"type": "Point", "coordinates": [116.4442038, 39.9323548]}, "properties": {"city": "Beijing", "name": "工人体育场", "colour": "#aaa"}}, {"type": "Feature", "geometry": {"type": "Point", "coordinates": [116.4348149, 39.9644456]}, "properties": {"city": "Beijing", "name": "西坝河", "colour": "#aaa"}}, {"type": "Feature", "geometry": {"type": "Point", "coordinates": [116.4365482, 39.9485486]}, "properties": {"city": "Beijing", "name": "左家庄", "colour": "#aaa"}}, {"type": "Feature", "geometry": {"type": "Point", "coordinates": [116.4411862, 39.9712918]}, "properties": {"city": "Beijing", "name": "太阳宫", "colour": "#aaa"}}, {"type": "Feature", "geometry": {"type": "Point", "coordinates": [116.4057013, 40.0515049]}, "properties": {"city": "Beijing", "name": "立水桥", "colour": "#aaa"}}, {"type": "Feature", "geometry": {"type": "Point", "coordinates": [116.2682827, 39.9425119]}, "properties": {"city": "Beijing", "name": "四季青桥", "colour": "#aaa"}}, {"type": "Feature", "geometry": {"type": "Point", "coordinates": [116.5411241, 39.9507876]}, "properties": {"city": "Beijing", "name": "东坝南", "colour": "#aaa"}}, {"type": "Feature", "geometry": {"type": "Point", "coordinates": [116.541359, 39.964645]}, "properties": {"city": "Beijing", "name": "东坝", "colour": "#aaa"}}, {"type": "Feature", "geometry": {"type": "Point", "coordinates": [116.4994848, 39.9792261]}, "properties": {"city": "Beijing", "name": "驼房营", "colour": "#aaa"}}, {"type": "Feature", "geometry": {"type": "Point", "coordinates": [116.4850346, 39.9791304]}, "properties": {"city": "Beijing", "name": "高家园", "colour": "#aaa"}}, {"type": "Feature", "geometry": {"type": "Point", "coordinates": [116.4739564, 39.9713939]}, "properties": {"city": "Beijing", "name": "将台西", "colour": "#aaa"}}, {"type": "Feature", "geometry": {"type": "Point", "coordinates": [116.5283562, 39.9733361]}, "properties": {"city": "Beijing", "name": "东坝西", "colour": "#aaa"}}, {"type": "Feature", "geometry": {"type": "Point", "coordinates": [116.3488274, 39.9663129]}, "properties": {"city": "Beijing", "name": "蓟门桥", "colour": "#aaa"}}, {"type": "Feature", "geometry": {"type": "Point", "coordinates": [116.3758342, 39.9668285]}, "properties": {"city": "Beijing", "name": "马甸桥", "colour": "#aaa"}}, {"type": "Feature", "geometry": {"type": "Point", "coordinates": [116.4009974, 39.9675012]}, "properties": {"city": "Beijing", "name": "安贞桥", "colour": "#aaa"}}, {"type": "Feature", "geometry": {"type": "Point", "coordinates": [116.2767052, 39.9558597]}, "properties": {"city": "Beijing", "name": "蓝靛厂", "colour": "#aaa"}}, {"type": "Feature", "geometry": {"type": "Point", "coordinates": [116.4934435, 39.9341652]}, "properties": {"city": "Beijing", "name": "石佛营", "colour": "#aaa"}}, {"type": "Feature", "geometry": {"type": "Point", "coordinates": [116.4998836, 39.9429982]}, "properties": {"city": "Beijing", "name": "朝阳站", "colour": "#aaa"}}, {"type": "Feature", "geometry": {"type": "Point", "coordinates": [116.5212923, 39.9465956]}, "properties": {"city": "Beijing", "name": "姚家园", "colour": "#aaa"}}, {"type": "Feature", "geometry": {"type": "Point", "coordinates": [116.4118056, 39.9677829]}, "properties": {"city": "Beijing", "name": "和平西桥", "colour": "#aaa"}}, {"type": "Feature", "geometry": {"type": "Point", "coordinates": [116.4242608, 39.9680699]}, "properties": {"city": "Beijing", "name": "光熙门", "colour": "#aaa"}}, {"type": "Feature", "geometry": {"type": "Point", "coordinates": [116.4360547, 39.9644089]}, "properties": {"city": "Beijing", "name": "西坝河", "colour": "#aaa"}}, {"type": "Feature", "geometry": {"type": "Point", "coordinates": [116.3015966, 39.9607503]}, "properties": {"city": "Beijing", "name": "苏州桥", "colour": "#aaa"}}, {"type": "Feature", "geometry": {"type": "Point", "coordinates": [116.3378309, 39.9661057]}, "properties": {"city": "Beijing", "name": "大钟寺", "colour": "#aaa"}}, {"type": "Feature", "geometry": {"type": "Point", "coordinates": [116.3152771, 39.9061612]}, "properties": {"city": "Beijing", "name": "军事博物馆", "colour": "#aaa"}}, {"type": "Feature", "geometry": {"type": "Point", "coordinates": [116.3259094, 40.0347054]}, "properties": {"city": "Beijing", "name": "朱房北", "colour": "#aaa"}}, {"type": "Feature", "geometry": {"type": "Point", "coordinates": [116.7327618, 39.9097035]}, "properties": {"city": "Beijing", "name": "政务中心东", "colour": "#aaa"}}, {"type": "Feature", "geometry": {"type": "Point", "coordinates": [116.3944459, 39.8429511]}, "properties": {"city": "Beijing", "name": "大红门", "colour": "#aaa"}}, {"type": "Feature", "geometry": {"type": "Point", "coordinates": [116.3040433, 40.0714794]}, "properties": {"city": "Beijing", "name": "龙泽西", "colour": "#aaa"}}, {"type": "Feature", "geometry": {"type": "Point", "coordinates": [116.7510869, 39.8888289]}, "properties": {"city": "Beijing", "name": "潞阳", "colour": "#aaa"}}, {"type": "Feature", "geometry": {"type": "Point", "coordinates": [116.2805664, 40.043537]}, "properties": {"city": "Beijing", "name": "上地软件园", "colour": "#aaa"}}, {"type": "Feature", "geometry": {"type": "Point", "coordinates": [116.2887219, 40.051835]}, "properties": {"city": "Beijing", "name": "东北旺", "colour": "#aaa"}}, {"type": "Feature", "geometry": {"type": "Point", "coordinates": [116.3245924, 40.0772781]}, "properties": {"city": "Beijing", "name": "回龙观西大街", "colour": "#aaa"}}, {"type": "Feature", "geometry": {"type": "Point", "coordinates": [116.3356615, 40.0788401]}, "properties": {"city": "Beijing", "name": "文华路", "colour": "#aaa"}}, {"type": "Feature", "geometry": {"type": "Point", "coordinates": [116.3698028, 40.0805687]}, "properties": {"city": "Beijing", "name": "霍营东", "colour": "#aaa"}}, {"type": "Feature", "geometry": {"type": "Point", "coordinates": [116.4087263, 40.0726643]}, "properties": {"city": "Beijing", "name": "天通苑", "colour": "#aaa"}}, {"type": "Feature", "geometry": {"type": "Point", "coordinates": [116.4202773, 40.0727436]}, "properties": {"city": "Beijing", "name": "太平庄", "colour": "#aaa"}}, {"type": "Feature", "geometry": {"type": "Point", "coordinates": [116.4378145, 40.0670514]}, "properties": {"city": "Beijing", "name": "天通苑东", "colour": "#aaa"}}, {"type": "Feature", "geometry": {"type": "Point", "coordinates": [116.4442134, 39.9216405]}, "properties": {"city": "Beijing", "name": "东大桥", "colour": "#aaa"}}, {"type": "Feature", "geometry": {"type": "Point", "coordinates": [116.444194, 39.9083452]}, "properties": {"city": "Beijing", "name": "永安里", "colour": "#aaa"}}, {"type": "Feature", "geometry": {"type": "Point", "coordinates": [116.4446966, 39.873824]}, "properties": {"city": "Beijing", "name": "潘家园西", "colour": "#aaa"}}, {"type": "Feature", "geometry": {"type": "Point", "coordinates": [116.5288048, 40.0439358]}, "properties": {"city": "Beijing", "name": "孙河", "colour": "#aaa"}}, {"type": "Feature", "geometry": {"type": "Point", "coordinates": [116.6669531, 39.9099934]}, "properties": {"city": "Beijing", "name": "通运门", "colour": "#aaa"}}, {"type": "Feature", "geometry": {"type": "Point", "coordinates": [113.0795239, 28.1512198]}, "properties": {"city": "Changsha", "name": "光达", "colour": "#aaa"}}, {"type": "Feature", "geometry": {"type": "Point", "coordinates": [112.9867492, 28.0652619]}, "properties": {"city": "Changsha", "name": "尚双塘", "colour": "#aaa"}}, {"type": "Feature", "geometry": {"type": "Point", "coordinates": [112.946637, 28.2002415]}, "properties": {"city": "Changsha", "name": "溁湾镇", "colour": "#aaa"}}, {"type": "Feature", "geometry": {"type": "Point", "coordinates": [113.0389387, 28.1608937]}, "properties": {"city": "Changsha", "name": "沙湾公园", "colour": "#aaa"}}, {"type": "Feature", "geometry": {"type": "Point", "coordinates": [112.9799784, 28.1636225]}, "properties": {"city": "Changsha", "name": "黄土岭", "colour": "#aaa"}}, {"type": "Feature", "geometry": {"type": "Point", "coordinates": [112.9709227, 28.1985991]}, "properties": {"city": "Changsha", "name": "五一广场", "colour": "#aaa"}}, {"type": "Feature", "geometry": {"type": "Point", "coordinates": [113.0246022, 28.2440735]}, "properties": {"city": "Changsha", "name": "长沙大学", "colour": "#aaa"}}, {"type": "Feature", "geometry": {"type": "Point", "coordinates": [113.0978902, 28.2485828]}, "properties": {"city": "Changsha", "name": "松雅湖(南)", "colour": "#aaa"}}, {"type": "Feature", "geometry": {"type": "Point", "coordinates": [113.1297382, 28.2481262]}, "properties": {"city": "Changsha", "name": "广生", "colour": "#aaa"}}, {"type": "Feature", "geometry": {"type": "Point", "coordinates": [113.0550658, 28.2488474]}, "properties": {"city": "Changsha", "name": "湘龙", "colour": "#aaa"}}, {"type": "Feature", "geometry": {"type": "Point", "coordinates": [113.1055875, 28.2485813]}, "properties": {"city": "Changsha", "name": "星沙文体中心", "colour": "#aaa"}}, {"type": "Feature", "geometry": {"type": "Point", "coordinates": [113.0353203, 28.2454217]}, "properties": {"city": "Changsha", "name": "月湖公园北", "colour": "#aaa"}}, {"type": "Feature", "geometry": {"type": "Point", "coordinates": [113.0801242, 28.2487567]}, "properties": {"city": "Changsha", "name": "星沙", "colour": "#aaa"}}, {"type": "Feature", "geometry": {"type": "Point", "coordinates": [113.1173671, 28.2485874]}, "properties": {"city": "Changsha", "name": "螺丝塘", "colour": "#aaa"}}, {"type": "Feature", "geometry": {"type": "Point", "coordinates": [113.0501852, 28.2669417]}, "properties": {"city": "Changsha", "name": "土桥", "colour": "#aaa"}}, {"type": "Feature", "geometry": {"type": "Point", "coordinates": [113.058155, 28.2828371]}, "properties": {"city": "Changsha", "name": "水渡河", "colour": "#aaa"}}, {"type": "Feature", "geometry": {"type": "Point", "coordinates": [113.0429104, 28.25357]}, "properties": {"city": "Changsha", "name": "白茅铺", "colour": "#aaa"}}, {"type": "Feature", "geometry": {"type": "Point", "coordinates": [113.0350271, 28.2348417]}, "properties": {"city": "Changsha", "name": "马栏山", "colour": "#aaa"}}, {"type": "Feature", "geometry": {"type": "Point", "coordinates": [113.030197, 28.2282502]}, "properties": {"city": "Changsha", "name": "鸭子铺", "colour": "#aaa"}}, {"type": "Feature", "geometry": {"type": "Point", "coordinates": [113.0254473, 28.2115857]}, "properties": {"city": "Changsha", "name": "火炬村", "colour": "#aaa"}}, {"type": "Feature", "geometry": {"type": "Point", "coordinates": [113.0251962, 28.2031781]}, "properties": {"city": "Changsha", "name": "马王堆", "colour": "#aaa"}}, {"type": "Feature", "geometry": {"type": "Point", "coordinates": [113.0244161, 28.1793703]}, "properties": {"city": "Changsha", "name": "高桥北", "colour": "#aaa"}}, {"type": "Feature", "geometry": {"type": "Point", "coordinates": [113.023979, 28.1703059]}, "properties": {"city": "Changsha", "name": "高桥南", "colour": "#aaa"}}, {"type": "Feature", "geometry": {"type": "Point", "coordinates": [113.0236233, 28.1600969]}, "properties": {"city": "Changsha", "name": "圭塘", "colour": "#aaa"}}, {"type": "Feature", "geometry": {"type": "Point", "coordinates": [113.0248642, 28.1947975]}, "properties": {"city": "Changsha", "name": "万家丽广场", "colour": "#aaa"}}, {"type": "Feature", "geometry": {"type": "Point", "coordinates": [113.0334266, 28.1193782]}, "properties": {"city": "Changsha", "name": "板塘冲", "colour": "#aaa"}}, {"type": "Feature", "geometry": {"type": "Point", "coordinates": [113.0307834, 28.0982891]}, "properties": {"city": "Changsha", "name": "毛竹塘", "colour": "#aaa"}}, {"type": "Feature", "geometry": {"type": "Point", "coordinates": [113.0293367, 28.1407685]}, "properties": {"city": "Changsha", "name": "雨花区政府", "colour": "#aaa"}}, {"type": "Feature", "geometry": {"type": "Point", "coordinates": [113.0305032, 28.1345194]}, "properties": {"city": "Changsha", "name": "大塘", "colour": "#aaa"}}, {"type": "Feature", "geometry": {"type": "Point", "coordinates": [113.003127, 28.2113281]}, "properties": {"city": "Changsha", "name": "烈士公园东", "colour": "#aaa"}}, {"type": "Feature", "geometry": {"type": "Point", "coordinates": [113.0081547, 28.2406857]}, "properties": {"city": "Changsha", "name": "雅雀湖", "colour": "#aaa"}}, {"type": "Feature", "geometry": {"type": "Point", "coordinates": [113.0054238, 28.1974439]}, "properties": {"city": "Changsha", "name": "长沙火车站", "colour": "#aaa"}}, {"type": "Feature", "geometry": {"type": "Point", "coordinates": [113.0012316, 28.2340295]}, "properties": {"city": "Changsha", "name": "四方坪", "colour": "#aaa"}}, {"type": "Feature", "geometry": {"type": "Point", "coordinates": [113.0012686, 28.2269931]}, "properties": {"city": "Changsha", "name": "丝茅冲", "colour": "#aaa"}}, {"type": "Feature", "geometry": {"type": "Point", "coordinates": [112.976395, 28.1771853]}, "properties": {"city": "Changsha", "name": "侯家塘", "colour": "#aaa"}}, {"type": "Feature", "geometry": {"type": "Point", "coordinates": [113.0024547, 28.1780067]}, "properties": {"city": "Changsha", "name": "阿弥岭", "colour": "#aaa"}}, {"type": "Feature", "geometry": {"type": "Point", "coordinates": [112.995845, 28.1739184]}, "properties": {"city": "Changsha", "name": "桂花公园", "colour": "#aaa"}}, {"type": "Feature", "geometry": {"type": "Point", "coordinates": [112.988077, 28.172955]}, "properties": {"city": "Changsha", "name": "东塘", "colour": "#aaa"}}, {"type": "Feature", "geometry": {"type": "Point", "coordinates": [113.0050451, 28.1881249]}, "properties": {"city": "Changsha", "name": "朝阳村", "colour": "#aaa"}}, {"type": "Feature", "geometry": {"type": "Point", "coordinates": [112.9650616, 28.1826777]}, "properties": {"city": "Changsha", "name": "灵官渡", "colour": "#aaa"}}, {"type": "Feature", "geometry": {"type": "Point", "coordinates": [112.9334044, 28.1182731]}, "properties": {"city": "Changsha", "name": "洋湖湿地", "colour": "#aaa"}}, {"type": "Feature", "geometry": {"type": "Point", "coordinates": [112.9396156, 28.1319264]}, "properties": {"city": "Changsha", "name": "洋湖新城", "colour": "#aaa"}}, {"type": "Feature", "geometry": {"type": "Point", "coordinates": [112.9322974, 28.1578368]}, "properties": {"city": "Changsha", "name": "中南大学", "colour": "#aaa"}}, {"type": "Feature", "geometry": {"type": "Point", "coordinates": [112.9425253, 28.1693308]}, "properties": {"city": "Changsha", "name": "阜埠河", "colour": "#aaa"}}, {"type": "Feature", "geometry": {"type": "Point", "coordinates": [112.9203649, 28.1022047]}, "properties": {"city": "Changsha", "name": "山塘", "colour": "#aaa"}}, {"type": "Feature", "geometry": {"type": "Point", "coordinates": [112.931579, 28.1454568]}, "properties": {"city": "Changsha", "name": "阳光", "colour": "#aaa"}}, {"type": "Feature", "geometry": {"type": "Point", "coordinates": [112.9493478, 28.2232077]}, "properties": {"city": "Changsha", "name": "六沟垅", "colour": "#aaa"}}, {"type": "Feature", "geometry": {"type": "Point", "coordinates": [112.8769562, 28.2234548]}, "properties": {"city": "Changsha", "name": "麓谷体育公园", "colour": "#aaa"}}, {"type": "Feature", "geometry": {"type": "Point", "coordinates": [113.1808627, 28.2058441]}, "properties": {"city": "Changsha", "name": "龙峰", "colour": "#aaa"}}, {"type": "Feature", "geometry": {"type": "Point", "coordinates": [113.2004334, 28.2059126]}, "properties": {"city": "Changsha", "name": "大路村", "colour": "#aaa"}}, {"type": "Feature", "geometry": {"type": "Point", "coordinates": [113.2061036, 28.1999288]}, "properties": {"city": "Changsha", "name": "木马塅", "colour": "#aaa"}}, {"type": "Feature", "geometry": {"type": "Point", "coordinates": [113.0894052, 28.196579]}, "properties": {"city": "Changsha", "name": "东湖", "colour": "#aaa"}}, {"type": "Feature", "geometry": {"type": "Point", "coordinates": [113.1001397, 28.1989601]}, "properties": {"city": "Changsha", "name": "韶光", "colour": "#aaa"}}, {"type": "Feature", "geometry": {"type": "Point", "coordinates": [113.0732795, 28.1944781]}, "properties": {"city": "Changsha", "name": "农科院农大", "colour": "#aaa"}}, {"type": "Feature", "geometry": {"type": "Point", "coordinates": [113.1227403, 28.2037131]}, "properties": {"city": "Changsha", "name": "龙华", "colour": "#aaa"}}, {"type": "Feature", "geometry": {"type": "Point", "coordinates": [113.053504, 28.1937418]}, "properties": {"city": "Changsha", "name": "隆平水稻博物馆", "colour": "#aaa"}}, {"type": "Feature", "geometry": {"type": "Point", "coordinates": [113.1452697, 28.2047373]}, "properties": {"city": "Changsha", "name": "檀木桥", "colour": "#aaa"}}, {"type": "Feature", "geometry": {"type": "Point", "coordinates": [113.1648396, 28.2069487]}, "properties": {"city": "Changsha", "name": "曹家坪", "colour": "#aaa"}}, {"type": "Feature", "geometry": {"type": "Point", "coordinates": [112.9907043, 28.1891253]}, "properties": {"city": "Changsha", "name": "窑岭湘雅二医院", "colour": "#aaa"}}, {"type": "Feature", "geometry": {"type": "Point", "coordinates": [112.9729371, 28.2174844]}, "properties": {"city": "Changsha", "name": "文昌阁", "colour": "#aaa"}}, {"type": "Feature", "geometry": {"type": "Point", "coordinates": [113.0246616, 28.1874965]}, "properties": {"city": "Changsha", "name": "芙蓉区政府", "colour": "#aaa"}}, {"type": "Feature", "geometry": {"type": "Point", "coordinates": [113.0329978, 28.1874015]}, "properties": {"city": "Changsha", "name": "人民东路", "colour": "#aaa"}}, {"type": "Feature", "geometry": {"type": "Point", "coordinates": [112.9856957, 28.2082052]}, "properties": {"city": "Changsha", "name": "烈士公园南", "colour": "#aaa"}}, {"type": "Feature", "geometry": {"type": "Point", "coordinates": [113.0428011, 28.1878677]}, "properties": {"city": "Changsha", "name": "花桥", "colour": "#aaa"}}, {"type": "Feature", "geometry": {"type": "Point", "coordinates": [112.9823568, 28.2169318]}, "properties": {"city": "Changsha", "name": "湘雅医院", "colour": "#aaa"}}, {"type": "Feature", "geometry": {"type": "Point", "coordinates": [112.9863932, 28.1981842]}, "properties": {"city": "Changsha", "name": "迎宾路口", "colour": "#aaa"}}, {"type": "Feature", "geometry": {"type": "Point", "coordinates": [112.8573517, 28.2047087]}, "properties": {"city": "Changsha", "name": "长庆", "colour": "#aaa"}}, {"type": "Feature", "geometry": {"type": "Point", "coordinates": [112.8578721, 28.1843947]}, "properties": {"city": "Changsha", "name": "中塘", "colour": "#aaa"}}, {"type": "Feature", "geometry": {"type": "Point", "coordinates": [112.9053515, 28.222102]}, "properties": {"city": "Changsha", "name": "涧塘", "colour": "#aaa"}}, {"type": "Feature", "geometry": {"type": "Point", "coordinates": [112.9376413, 28.2216339]}, "properties": {"city": "Changsha", "name": "湘雅三医院", "colour": "#aaa"}}, {"type": "Feature", "geometry": {"type": "Point", "coordinates": [112.9168708, 28.2228282]}, "properties": {"city": "Changsha", "name": "湖南工商大学", "colour": "#aaa"}}, {"type": "Feature", "geometry": {"type": "Point", "coordinates": [112.8560114, 28.2180695]}, "properties": {"city": "Changsha", "name": "和馨园", "colour": "#aaa"}}, {"type": "Feature", "geometry": {"type": "Point", "coordinates": [112.8903783, 28.2217053]}, "properties": {"city": "Changsha", "name": "麓谷公园", "colour": "#aaa"}}, {"type": "Feature", "geometry": {"type": "Point", "coordinates": [112.9285433, 28.2213604]}, "properties": {"city": "Changsha", "name": "白鸽咀", "colour": "#aaa"}}, {"type": "Feature", "geometry": {"type": "Point", "coordinates": [112.8593748, 28.1963892]}, "properties": {"city": "Changsha", "name": "一师范西校区", "colour": "#aaa"}}, {"type": "Feature", "geometry": {"type": "Point", "coordinates": [112.8663514, 28.224431]}, "properties": {"city": "Changsha", "name": "长丰", "colour": "#aaa"}}, {"type": "Feature", "geometry": {"type": "Point", "coordinates": [112.8478007, 28.1762528]}, "properties": {"city": "Changsha", "name": "象鼻窝", "colour": "#aaa"}}, {"type": "Feature", "geometry": {"type": "Point", "coordinates": [112.8303822, 28.176167]}, "properties": {"city": "Changsha", "name": "谢家桥", "colour": "#aaa"}}, {"type": "Feature", "geometry": {"type": "Point", "coordinates": [112.937838, 27.9669503]}, "properties": {"city": "Changsha", "name": "湘潭北站", "colour": "#aaa"}}, {"type": "Feature", "geometry": {"type": "Point", "coordinates": [112.943983, 27.9830297]}, "properties": {"city": "Changsha", "name": "船形山（湘潭理工学院）", "colour": "#aaa"}}, {"type": "Feature", "geometry": {"type": "Point", "coordinates": [112.9416682, 27.9936974]}, "properties": {"city": "Changsha", "name": "黄家湾", "colour": "#aaa"}}, {"type": "Feature", "geometry": {"type": "Point", "coordinates": [112.9225226, 28.0298448]}, "properties": {"city": "Changsha", "name": "双湖", "colour": "#aaa"}}, {"type": "Feature", "geometry": {"type": "Point", "coordinates": [112.907285, 28.0469162]}, "properties": {"city": "Changsha", "name": "坪塘", "colour": "#aaa"}}, {"type": "Feature", "geometry": {"type": "Point", "coordinates": [113.2131992, 28.1942079]}, "properties": {"city": "Changsha", "name": "黄花机场T1T2", "colour": "#aaa"}}, {"type": "Feature", "geometry": {"type": "Point", "coordinates": [112.9044742, 28.0628179]}, "properties": {"city": "Changsha", "name": "红桥", "colour": "#aaa"}}, {"type": "Feature", "geometry": {"type": "Point", "coordinates": [112.9027927, 28.0789594]}, "properties": {"city": "Changsha", "name": "桐溪", "colour": "#aaa"}}, {"type": "Feature", "geometry": {"type": "Point", "coordinates": [112.9115702, 28.0921542]}, "properties": {"city": "Changsha", "name": "大王山", "colour": "#aaa"}}, {"type": "Feature", "geometry": {"type": "Point", "coordinates": [112.9797846, 28.2653032]}, "properties": {"city": "Changsha", "name": "开福区政府", "colour": "#aaa"}}, {"type": "Feature", "geometry": {"type": "Point", "coordinates": [112.9831982, 28.2542774]}, "properties": {"city": "Changsha", "name": "马厂", "colour": "#aaa"}}, {"type": "Feature", "geometry": {"type": "Point", "coordinates": [112.978393, 28.2396207]}, "properties": {"city": "Changsha", "name": "北辰三角洲", "colour": "#aaa"}}, {"type": "Feature", "geometry": {"type": "Point", "coordinates": [112.9738773, 28.2260743]}, "properties": {"city": "Changsha", "name": "开福寺", "colour": "#aaa"}}, {"type": "Feature", "geometry": {"type": "Point", "coordinates": [112.9709123, 28.2093136]}, "properties": {"city": "Changsha", "name": "培元桥", "colour": "#aaa"}}, {"type": "Feature", "geometry": {"type": "Point", "coordinates": [112.9708242, 28.192437]}, "properties": {"city": "Changsha", "name": "黄兴广场", "colour": "#aaa"}}, {"type": "Feature", "geometry": {"type": "Point", "coordinates": [112.9706895, 28.186311]}, "properties": {"city": "Changsha", "name": "南门口", "colour": "#aaa"}}, {"type": "Feature", "geometry": {"type": "Point", "coordinates": [112.9800738, 28.1692043]}, "properties": {"city": "Changsha", "name": "南湖路", "colour": "#aaa"}}, {"type": "Feature", "geometry": {"type": "Point", "coordinates": [112.9793175, 28.1562244]}, "properties": {"city": "Changsha", "name": "涂家冲", "colour": "#aaa"}}, {"type": "Feature", "geometry": {"type": "Point", "coordinates": [112.9817904, 28.1395953]}, "properties": {"city": "Changsha", "name": "铁道学院", "colour": "#aaa"}}, {"type": "Feature", "geometry": {"type": "Point", "coordinates": [112.9812872, 28.1274725]}, "properties": {"city": "Changsha", "name": "友谊路", "colour": "#aaa"}}, {"type": "Feature", "geometry": {"type": "Point", "coordinates": [112.9835626, 28.0857724]}, "properties": {"city": "Changsha", "name": "大托", "colour": "#aaa"}}, {"type": "Feature", "geometry": {"type": "Point", "coordinates": [112.9839976, 28.0770223]}, "properties": {"city": "Changsha", "name": "中信广场", "colour": "#aaa"}}, {"type": "Feature", "geometry": {"type": "Point", "coordinates": [112.9819728, 28.1144885]}, "properties": {"city": "Changsha", "name": "省政府", "colour": "#aaa"}}, {"type": "Feature", "geometry": {"type": "Point", "coordinates": [112.9827521, 28.1024598]}, "properties": {"city": "Changsha", "name": "桂花坪", "colour": "#aaa"}}, {"type": "Feature", "geometry": {"type": "Point", "coordinates": [113.0251638, 28.1520419]}, "properties": {"city": "Changsha", "name": "木桥", "colour": "#aaa"}}, {"type": "Feature", "geometry": {"type": "Point", "coordinates": [112.9622817, 28.1677736]}, "properties": {"city": "Changsha", "name": "碧沙湖", "colour": "#aaa"}}, {"type": "Feature", "geometry": {"type": "Point", "coordinates": [112.9999268, 28.1629534]}, "properties": {"city": "Changsha", "name": "赤岗岭", "colour": "#aaa"}}, {"type": "Feature", "geometry": {"type": "Point", "coordinates": [112.9876858, 28.165935]}, "properties": {"city": "Changsha", "name": "砂子塘", "colour": "#aaa"}}, {"type": "Feature", "geometry": {"type": "Point", "coordinates": [113.0877904, 28.1455402]}, "properties": {"city": "Changsha", "name": "杜家坪", "colour": "#aaa"}}, {"type": "Feature", "geometry": {"type": "Point", "coordinates": [113.0589671, 28.1500839]}, "properties": {"city": "Changsha", "name": "长沙火车南站", "colour": "#aaa"}}, {"type": "Feature", "geometry": {"type": "Point", "coordinates": [113.015054, 28.1594366]}, "properties": {"city": "Changsha", "name": "树木岭", "colour": "#aaa"}}, {"type": "Feature", "geometry": {"type": "Point", "coordinates": [113.0462152, 28.1608332]}, "properties": {"city": "Changsha", "name": "粟塘", "colour": "#aaa"}}, {"type": "Feature", "geometry": {"type": "Point", "coordinates": [113.0512978, 28.1549432]}, "properties": {"city": "Changsha", "name": "平阳", "colour": "#aaa"}}, {"type": "Feature", "geometry": {"type": "Point", "coordinates": [112.9241363, 28.2906536]}, "properties": {"city": "Changsha", "name": "月亮岛西", "colour": "#aaa"}}, {"type": "Feature", "geometry": {"type": "Point", "coordinates": [112.9539677, 28.245662]}, "properties": {"city": "Changsha", "name": "茶子山", "colour": "#aaa"}}, {"type": "Feature", "geometry": {"type": "Point", "coordinates": [112.917849, 28.2980876]}, "properties": {"city": "Changsha", "name": "罐子岭", "colour": "#aaa"}}, {"type": "Feature", "geometry": {"type": "Point", "coordinates": [112.9423024, 28.2708714]}, "properties": {"city": "Changsha", "name": "汉王陵公园", "colour": "#aaa"}}, {"type": "Feature", "geometry": {"type": "Point", "coordinates": [112.9282153, 28.2852118]}, "properties": {"city": "Changsha", "name": "湘江新城", "colour": "#aaa"}}, {"type": "Feature", "geometry": {"type": "Point", "coordinates": [112.9502084, 28.2101009]}, "properties": {"city": "Changsha", "name": "望月湖", "colour": "#aaa"}}, {"type": "Feature", "geometry": {"type": "Point", "coordinates": [112.9532285, 28.256781]}, "properties": {"city": "Changsha", "name": "福元大桥西", "colour": "#aaa"}}, {"type": "Feature", "geometry": {"type": "Point", "coordinates": [112.9470793, 28.2340528]}, "properties": {"city": "Changsha", "name": "观沙岭", "colour": "#aaa"}}, {"type": "Feature", "geometry": {"type": "Point", "coordinates": [112.9426861, 28.1894657]}, "properties": {"city": "Changsha", "name": "湖南师大", "colour": "#aaa"}}, {"type": "Feature", "geometry": {"type": "Point", "coordinates": [112.9413466, 28.183548]}, "properties": {"city": "Changsha", "name": "湖南大学", "colour": "#aaa"}}, {"type": "Feature", "geometry": {"type": "Point", "coordinates": [112.9360861, 28.205758]}, "properties": {"city": "Changsha", "name": "西湖公园", "colour": "#aaa"}}, {"type": "Feature", "geometry": {"type": "Point", "coordinates": [112.9232263, 28.2095481]}, "properties": {"city": "Changsha", "name": "金星路", "colour": "#aaa"}}, {"type": "Feature", "geometry": {"type": "Point", "coordinates": [112.9087585, 28.2109734]}, "properties": {"city": "Changsha", "name": "望城坡", "colour": "#aaa"}}, {"type": "Feature", "geometry": {"type": "Point", "coordinates": [112.9028026, 28.2049626]}, "properties": {"city": "Changsha", "name": "梅溪湖东", "colour": "#aaa"}}, {"type": "Feature", "geometry": {"type": "Point", "coordinates": [112.8950993, 28.2002102]}, "properties": {"city": "Changsha", "name": "文化艺术中心", "colour": "#aaa"}}, {"type": "Feature", "geometry": {"type": "Point", "coordinates": [112.8868113, 28.1943158]}, "properties": {"city": "Changsha", "name": "麓云路", "colour": "#aaa"}}, {"type": "Feature", "geometry": {"type": "Point", "coordinates": [112.876399, 28.1892757]}, "properties": {"city": "Changsha", "name": "梅溪湖西", "colour": "#aaa"}}, {"type": "Feature", "geometry": {"type": "Point", "coordinates": [112.9568907, 28.1986004]}, "properties": {"city": "Changsha", "name": "橘子洲", "colour": "#aaa"}}, {"type": "Feature", "geometry": {"type": "Point", "coordinates": [112.9639007, 28.1986749]}, "properties": {"city": "Changsha", "name": "湘江中路", "colour": "#aaa"}}, {"type": "Feature", "geometry": {"type": "Point", "coordinates": [112.9784503, 28.1983936]}, "properties": {"city": "Changsha", "name": "芙蓉广场", "colour": "#aaa"}}, {"type": "Feature", "geometry": {"type": "Point", "coordinates": [112.9955856, 28.1978245]}, "properties": {"city": "Changsha", "name": "袁家岭", "colour": "#aaa"}}, {"type": "Feature", "geometry": {"type": "Point", "coordinates": [113.0118384, 28.1951515]}, "properties": {"city": "Changsha", "name": "锦泰广场", "colour": "#aaa"}}, {"type": "Feature", "geometry": {"type": "Point", "coordinates": [113.0386645, 28.1709857]}, "properties": {"city": "Changsha", "name": "长沙大道", "colour": "#aaa"}}, {"type": "Feature", "geometry": {"type": "Point", "coordinates": [113.0510188, 28.1494555]}, "properties": {"city": "Changsha", "name": "杜花路", "colour": "#aaa"}}, {"type": "Feature", "geometry": {"type": "Point", "coordinates": [113.003515, 28.2004937]}, "properties": {"city": "Changsha", "name": "五里牌（暂未开通）", "colour": "#aaa"}}, {"type": "Feature", "geometry": {"type": "Point", "coordinates": [112.9729338, 28.2821517]}, "properties": {"city": "Changsha", "name": "宿龙桥", "colour": "#aaa"}}, {"type": "Feature", "geometry": {"type": "Point", "coordinates": [112.9632604, 28.2988032]}, "properties": {"city": "Changsha", "name": "秀峰山", "colour": "#aaa"}}, {"type": "Feature", "geometry": {"type": "Point", "coordinates": [112.954161, 28.3137544]}, "properties": {"city": "Changsha", "name": "鹅羊山", "colour": "#aaa"}}, {"type": "Feature", "geometry": {"type": "Point", "coordinates": [112.9405823, 28.3290936]}, "properties": {"city": "Changsha", "name": "金霞", "colour": "#aaa"}}, {"type": "Feature", "geometry": {"type": "Point", "coordinates": [112.9277694, 28.3423921]}, "properties": {"city": "Changsha", "name": "金盆丘", "colour": "#aaa"}}, {"type": "Feature", "geometry": {"type": "Point", "coordinates": [103.9686662, 30.7612369]}, "properties": {"city": "Chengdu", "name": "犀浦", "colour": "#aaa"}}, {"type": "Feature", "geometry": {"type": "Point", "coordinates": [103.9771766, 30.7355916]}, "properties": {"city": "Chengdu", "name": "百草路", "colour": "#aaa"}}, {"type": "Feature", "geometry": {"type": "Point", "coordinates": [103.9937837, 30.7241362]}, "properties": {"city": "Chengdu", "name": "金周路", "colour": "#aaa"}}, {"type": "Feature", "geometry": {"type": "Point", "coordinates": [104.0917493, 30.6474304]}, "properties": {"city": "Chengdu", "name": "牛王庙", "colour": "#aaa"}}, {"type": "Feature", "geometry": {"type": "Point", "coordinates": [104.0849175, 30.6505066]}, "properties": {"city": "Chengdu", "name": "东门大桥", "colour": "#aaa"}}, {"type": "Feature", "geometry": {"type": "Point", "coordinates": [104.1051624, 30.6400592]}, "properties": {"city": "Chengdu", "name": "牛市口", "colour": "#aaa"}}, {"type": "Feature", "geometry": {"type": "Point", "coordinates": [104.1100731, 30.6356434]}, "properties": {"city": "Chengdu", "name": "东大路", "colour": "#aaa"}}, {"type": "Feature", "geometry": {"type": "Point", "coordinates": [104.1446201, 30.6273326]}, "properties": {"city": "Chengdu", "name": "成渝立交", "colour": "#aaa"}}, {"type": "Feature", "geometry": {"type": "Point", "coordinates": [104.1202341, 30.6318334]}, "properties": {"city": "Chengdu", "name": "塔子山公园", "colour": "#aaa"}}, {"type": "Feature", "geometry": {"type": "Point", "coordinates": [104.1495961, 30.6144314]}, "properties": {"city": "Chengdu", "name": "惠王陵", "colour": "#aaa"}}, {"type": "Feature", "geometry": {"type": "Point", "coordinates": [104.1549613, 30.6073228]}, "properties": {"city": "Chengdu", "name": "洪河", "colour": "#aaa"}}, {"type": "Feature", "geometry": {"type": "Point", "coordinates": [104.1681935, 30.5995737]}, "properties": {"city": "Chengdu", "name": "成都行政学院", "colour": "#aaa"}}, {"type": "Feature", "geometry": {"type": "Point", "coordinates": [104.2565789, 30.5755581]}, "properties": {"city": "Chengdu", "name": "龙平路", "colour": "#aaa"}}, {"type": "Feature", "geometry": {"type": "Point", "coordinates": [104.2397629, 30.5782215]}, "properties": {"city": "Chengdu", "name": "书房", "colour": "#aaa"}}, {"type": "Feature", "geometry": {"type": "Point", "coordinates": [104.1989423, 30.594997]}, "properties": {"city": "Chengdu", "name": "大面铺", "colour": "#aaa"}}, {"type": "Feature", "geometry": {"type": "Point", "coordinates": [104.2228454, 30.5853645]}, "properties": {"city": "Chengdu", "name": "界牌", "colour": "#aaa"}}, {"type": "Feature", "geometry": {"type": "Point", "coordinates": [104.2104766, 30.5901384]}, "properties": {"city": "Chengdu", "name": "连山坡", "colour": "#aaa"}}, {"type": "Feature", "geometry": {"type": "Point", "coordinates": [104.2659429, 30.5629008]}, "properties": {"city": "Chengdu", "name": "龙泉驿", "colour": "#aaa"}}, {"type": "Feature", "geometry": {"type": "Point", "coordinates": [103.9732887, 30.686382]}, "properties": {"city": "Chengdu", "name": "成都西站", "colour": "#aaa"}}, {"type": "Feature", "geometry": {"type": "Point", "coordinates": [103.9618731, 30.6759957]}, "properties": {"city": "Chengdu", "name": "中坝", "colour": "#aaa"}}, {"type": "Feature", "geometry": {"type": "Point", "coordinates": [103.920427, 30.6767304]}, "properties": {"city": "Chengdu", "name": "非遗博览园", "colour": "#aaa"}}, {"type": "Feature", "geometry": {"type": "Point", "coordinates": [103.9963288, 30.6790972]}, "properties": {"city": "Chengdu", "name": "清江西路", "colour": "#aaa"}}, {"type": "Feature", "geometry": {"type": "Point", "coordinates": [103.9429335, 30.6721303]}, "properties": {"city": "Chengdu", "name": "蔡桥", "colour": "#aaa"}}, {"type": "Feature", "geometry": {"type": "Point", "coordinates": [104.0733969, 30.5131167]}, "properties": {"city": "Chengdu", "name": "广都", "colour": "#aaa"}}, {"type": "Feature", "geometry": {"type": "Point", "coordinates": [104.1155497, 30.6893211]}, "properties": {"city": "Chengdu", "name": "八里庄", "colour": "#aaa"}}, {"type": "Feature", "geometry": {"type": "Point", "coordinates": [104.123817, 30.6831632]}, "properties": {"city": "Chengdu", "name": "二仙桥", "colour": "#aaa"}}, {"type": "Feature", "geometry": {"type": "Point", "coordinates": [104.1338345, 30.6677491]}, "properties": {"city": "Chengdu", "name": "崔家店", "colour": "#aaa"}}, {"type": "Feature", "geometry": {"type": "Point", "coordinates": [104.1368059, 30.6404393]}, "properties": {"city": "Chengdu", "name": "迎晖路", "colour": "#aaa"}}, {"type": "Feature", "geometry": {"type": "Point", "coordinates": [104.1301784, 30.6238725]}, "properties": {"city": "Chengdu", "name": "大观", "colour": "#aaa"}}, {"type": "Feature", "geometry": {"type": "Point", "coordinates": [104.1139323, 30.6118475]}, "properties": {"city": "Chengdu", "name": "四川师大", "colour": "#aaa"}}, {"type": "Feature", "geometry": {"type": "Point", "coordinates": [104.0980624, 30.6098714]}, "properties": {"city": "Chengdu", "name": "琉璃场", "colour": "#aaa"}}, {"type": "Feature", "geometry": {"type": "Point", "coordinates": [104.0750502, 30.6066043]}, "properties": {"city": "Chengdu", "name": "三瓦窑", "colour": "#aaa"}}, {"type": "Feature", "geometry": {"type": "Point", "coordinates": [104.0103594, 30.6399039]}, "properties": {"city": "Chengdu", "name": "武侯大道", "colour": "#aaa"}}, {"type": "Feature", "geometry": {"type": "Point", "coordinates": [104.0060088, 30.6544668]}, "properties": {"city": "Chengdu", "name": "龙爪堰", "colour": "#aaa"}}, {"type": "Feature", "geometry": {"type": "Point", "coordinates": [104.0059252, 30.6633826]}, "properties": {"city": "Chengdu", "name": "东坡路", "colour": "#aaa"}}, {"type": "Feature", "geometry": {"type": "Point", "coordinates": [104.0548298, 30.6971991]}, "properties": {"city": "Chengdu", "name": "九里堤", "colour": "#aaa"}}, {"type": "Feature", "geometry": {"type": "Point", "coordinates": [104.0277688, 30.6375454]}, "properties": {"city": "Chengdu", "name": "红牌楼", "colour": "#aaa"}}, {"type": "Feature", "geometry": {"type": "Point", "coordinates": [104.0401149, 30.6419878]}, "properties": {"city": "Chengdu", "name": "高升桥", "colour": "#aaa"}}, {"type": "Feature", "geometry": {"type": "Point", "coordinates": [104.0495884, 30.6369087]}, "properties": {"city": "Chengdu", "name": "衣冠庙", "colour": "#aaa"}}, {"type": "Feature", "geometry": {"type": "Point", "coordinates": [104.0734434, 30.6399622]}, "properties": {"city": "Chengdu", "name": "磨子桥", "colour": "#aaa"}}, {"type": "Feature", "geometry": {"type": "Point", "coordinates": [104.0725706, 30.6465969]}, "properties": {"city": "Chengdu", "name": "新南门", "colour": "#aaa"}}, {"type": "Feature", "geometry": {"type": "Point", "coordinates": [104.0896857, 30.6813722]}, "properties": {"city": "Chengdu", "name": "前锋路", "colour": "#aaa"}}, {"type": "Feature", "geometry": {"type": "Point", "coordinates": [104.0879308, 30.6736546]}, "properties": {"city": "Chengdu", "name": "红星桥", "colour": "#aaa"}}, {"type": "Feature", "geometry": {"type": "Point", "coordinates": [104.0922219, 30.6917507]}, "properties": {"city": "Chengdu", "name": "李家沱", "colour": "#aaa"}}, {"type": "Feature", "geometry": {"type": "Point", "coordinates": [104.0944642, 30.7055342]}, "properties": {"city": "Chengdu", "name": "昭觉寺南路", "colour": "#aaa"}}, {"type": "Feature", "geometry": {"type": "Point", "coordinates": [104.100717, 30.7160165]}, "properties": {"city": "Chengdu", "name": "动物园", "colour": "#aaa"}}, {"type": "Feature", "geometry": {"type": "Point", "coordinates": [104.1055666, 30.7280582]}, "properties": {"city": "Chengdu", "name": "熊猫大道", "colour": "#aaa"}}, {"type": "Feature", "geometry": {"type": "Point", "coordinates": [104.1116006, 30.7470119]}, "properties": {"city": "Chengdu", "name": "军区总医院", "colour": "#aaa"}}, {"type": "Feature", "geometry": {"type": "Point", "coordinates": [104.1375485, 30.6316093]}, "properties": {"city": "Chengdu", "name": "成都东客站", "colour": "#aaa"}}, {"type": "Feature", "geometry": {"type": "Point", "coordinates": [104.1341144, 30.6600116]}, "properties": {"city": "Chengdu", "name": "双店路", "colour": "#aaa"}}, {"type": "Feature", "geometry": {"type": "Point", "coordinates": [103.9117294, 30.6801415]}, "properties": {"city": "Chengdu", "name": "马厂坝", "colour": "#aaa"}}, {"type": "Feature", "geometry": {"type": "Point", "coordinates": [103.871377, 30.6810883]}, "properties": {"city": "Chengdu", "name": "涌泉", "colour": "#aaa"}}, {"type": "Feature", "geometry": {"type": "Point", "coordinates": [103.8586008, 30.6869895]}, "properties": {"city": "Chengdu", "name": "光华公园", "colour": "#aaa"}}, {"type": "Feature", "geometry": {"type": "Point", "coordinates": [103.8496735, 30.6921987]}, "properties": {"city": "Chengdu", "name": "南熏大道", "colour": "#aaa"}}, {"type": "Feature", "geometry": {"type": "Point", "coordinates": [103.841051, 30.688723]}, "properties": {"city": "Chengdu", "name": "凤溪河", "colour": "#aaa"}}, {"type": "Feature", "geometry": {"type": "Point", "coordinates": [103.8290775, 30.6834968]}, "properties": {"city": "Chengdu", "name": "杨柳河", "colour": "#aaa"}}, {"type": "Feature", "geometry": {"type": "Point", "coordinates": [103.816824, 30.677921]}, "properties": {"city": "Chengdu", "name": "万盛", "colour": "#aaa"}}, {"type": "Feature", "geometry": {"type": "Point", "coordinates": [103.9989423, 30.6013512]}, "properties": {"city": "Chengdu", "name": "华兴", "colour": "#aaa"}}, {"type": "Feature", "geometry": {"type": "Point", "coordinates": [103.9573418, 30.5813458]}, "properties": {"city": "Chengdu", "name": "双流机场1航站楼", "colour": "#aaa"}}, {"type": "Feature", "geometry": {"type": "Point", "coordinates": [103.9540935, 30.5722698]}, "properties": {"city": "Chengdu", "name": "双流机场2航站楼", "colour": "#aaa"}}, {"type": "Feature", "geometry": {"type": "Point", "coordinates": [104.0479169, 30.6677721]}, "properties": {"city": "Chengdu", "name": "宽窄巷子", "colour": "#aaa"}}, {"type": "Feature", "geometry": {"type": "Point", "coordinates": [104.0791522, 30.5043235]}, "properties": {"city": "Chengdu", "name": "五根松", "colour": "#aaa"}}, {"type": "Feature", "geometry": {"type": "Point", "coordinates": [104.0677218, 30.5057801]}, "properties": {"city": "Chengdu", "name": "华阳", "colour": "#aaa"}}, {"type": "Feature", "geometry": {"type": "Point", "coordinates": [104.0678625, 30.4948222]}, "properties": {"city": "Chengdu", "name": "海昌路", "colour": "#aaa"}}, {"type": "Feature", "geometry": {"type": "Point", "coordinates": [104.0704974, 30.4667392]}, "properties": {"city": "Chengdu", "name": "红石公园", "colour": "#aaa"}}, {"type": "Feature", "geometry": {"type": "Point", "coordinates": [104.0708214, 30.4568386]}, "properties": {"city": "Chengdu", "name": "麓湖", "colour": "#aaa"}}, {"type": "Feature", "geometry": {"type": "Point", "coordinates": [104.0711146, 30.4448249]}, "properties": {"city": "Chengdu", "name": "武汉路", "colour": "#aaa"}}, {"type": "Feature", "geometry": {"type": "Point", "coordinates": [104.0752452, 30.435566]}, "properties": {"city": "Chengdu", "name": "天府公园", "colour": "#aaa"}}, {"type": "Feature", "geometry": {"type": "Point", "coordinates": [104.0745711, 30.4268379]}, "properties": {"city": "Chengdu", "name": "西博城", "colour": "#aaa"}}, {"type": "Feature", "geometry": {"type": "Point", "coordinates": [104.0745627, 30.4210018]}, "properties": {"city": "Chengdu", "name": "广州路", "colour": "#aaa"}}, {"type": "Feature", "geometry": {"type": "Point", "coordinates": [104.073798, 30.4076202]}, "properties": {"city": "Chengdu", "name": "兴隆湖", "colour": "#aaa"}}, {"type": "Feature", "geometry": {"type": "Point", "coordinates": [104.0703492, 30.3939194]}, "properties": {"city": "Chengdu", "name": "科学城", "colour": "#aaa"}}, {"type": "Feature", "geometry": {"type": "Point", "coordinates": [104.0072494, 30.674665]}, "properties": {"city": "Chengdu", "name": "文化宫", "colour": "#aaa"}}, {"type": "Feature", "geometry": {"type": "Point", "coordinates": [104.0190851, 30.6279668]}, "properties": {"city": "Chengdu", "name": "太平园", "colour": "#aaa"}}, {"type": "Feature", "geometry": {"type": "Point", "coordinates": [104.1371745, 30.6317593]}, "properties": {"city": "Chengdu", "name": "成都东客站", "colour": "#aaa"}}, {"type": "Feature", "geometry": {"type": "Point", "coordinates": [104.0908517, 30.6979082]}, "properties": {"city": "Chengdu", "name": "驷马桥", "colour": "#aaa"}}, {"type": "Feature", "geometry": {"type": "Point", "coordinates": [104.0769039, 30.6560366]}, "properties": {"city": "Chengdu", "name": "春熙路", "colour": "#aaa"}}, {"type": "Feature", "geometry": {"type": "Point", "coordinates": [104.0180359, 30.6911776]}, "properties": {"city": "Chengdu", "name": "一品天下", "colour": "#aaa"}}, {"type": "Feature", "geometry": {"type": "Point", "coordinates": [104.0382106, 30.6686006]}, "properties": {"city": "Chengdu", "name": "中医大·省医院", "colour": "#aaa"}}, {"type": "Feature", "geometry": {"type": "Point", "coordinates": [104.0646616, 30.6177436]}, "properties": {"city": "Chengdu", "name": "桐梓林", "colour": "#aaa"}}, {"type": "Feature", "geometry": {"type": "Point", "coordinates": [104.0844471, 30.720173]}, "properties": {"city": "Chengdu", "name": "韦家碾", "colour": "#aaa"}}, {"type": "Feature", "geometry": {"type": "Point", "coordinates": [104.1370649, 30.6513365]}, "properties": {"city": "Chengdu", "name": "槐树店", "colour": "#aaa"}}, {"type": "Feature", "geometry": {"type": "Point", "coordinates": [103.9739973, 30.7484271]}, "properties": {"city": "Chengdu", "name": "天河路", "colour": "#aaa"}}, {"type": "Feature", "geometry": {"type": "Point", "coordinates": [104.0637964, 30.6961737]}, "properties": {"city": "Chengdu", "name": "北站西二路", "colour": "#aaa"}}, {"type": "Feature", "geometry": {"type": "Point", "coordinates": [104.1365631, 30.7870805]}, "properties": {"city": "Chengdu", "name": "三河场", "colour": "#aaa"}}, {"type": "Feature", "geometry": {"type": "Point", "coordinates": [104.1510913, 30.7996248]}, "properties": {"city": "Chengdu", "name": "锦水河", "colour": "#aaa"}}, {"type": "Feature", "geometry": {"type": "Point", "coordinates": [104.1560738, 30.8062238]}, "properties": {"city": "Chengdu", "name": "团结新区", "colour": "#aaa"}}, {"type": "Feature", "geometry": {"type": "Point", "coordinates": [104.1921402, 30.8193229]},